{
"type": "FeatureCollection",
"crs": { "type": "name", "properties": { "name": "urn:ogc:def:crs:OGC:1.3:CRS84" } },
                                                                                
"features": [
{ "type": "Feature", "properties": { "name": "AETNA SPRING CELLARS", "status": "PROD", "prod_orig": 2000, "prod_curr": 20000, "estab_date": "06\/01\/1986", "total_size": 2500, "ava": "Napa Valley" }, "geometry": { "type": "Point", "coordinates": [ -122.466439350679494, 38.650287350196592 ] } },
{ "type": "Feature", "properties": { "name": "POPE VALLEY WINERY", "status": "PROD", "prod_orig": 5000, "prod_curr": 20000, "estab_date": "12\/01\/1972", "total_size": 4836, "ava": "Napa Valley" }, "geometry": { "type": "Point", "coordinates": [ -122.451882659471977, 38.633936412743118 ] } },
{ "type": "Feature", "properties": { "name": "CANDLESTICK RIDGE VINEYARD", "status": "UNKNWN", "prod_orig": 20000, "prod_curr": 20000, "estab_date": "09\/01\/1988", "total_size": 3018, "ava": "Howell Mountain" }, "geometry": { "type": "Point", "coordinates": [ -122.478445061038045, 38.620086391890105 ] } },
{ "type": "Feature", "properties": { "name": "WHISKEY RIVER RANCH VINEYARDS", "status": "PROD", "prod_orig": 180000, "prod_curr": 360000, "estab_date": "09\/01\/1996", "total_size": 30537, "ava": "Napa Valley" }, "geometry": { "type": "Point", "coordinates": [ -122.395633885785315, 38.604969567122623 ] } },
{ "type": "Feature", "properties": { "name": "SEARS WINERY", "status": "PRODMD", "prod_orig": 750, "prod_curr": 20000, "estab_date": "09\/01\/1996", "total_size": 8365, "ava": "Howell Mountain" }, "geometry": { "type": "Point", "coordinates": [ -122.473126267672129, 38.60527266472198 ] } },
{ "type": "Feature", "properties": { "name": "CHATEAU MONTELENA WINERY", "status": "PROD", "prod_orig": 125000, "prod_curr": 128000, "estab_date": "09\/01\/1886", "total_size": 44062, "ava": "Calistoga" }, "geometry": { "type": "Point", "coordinates": [ -122.59878597079404, 38.602971147775619 ] } },
{ "type": "Feature", "properties": { "name": "STORYBOOK MOUNTAIN VINEYARD", "status": "PROD", "prod_orig": 3, "prod_curr": 15000, "estab_date": "09\/18\/1983", "total_size": 8375, "ava": "Calistoga" }, "geometry": { "type": "Point", "coordinates": [ -122.639386181136544, 38.599736299740123 ] } },
{ "type": "Feature", "properties": { "name": "ATALON WINERY", "status": "PROD", "prod_orig": 1500, "prod_curr": 60000, "estab_date": "12\/01\/1978", "total_size": 12100, "ava": "Calistoga" }, "geometry": { "type": "Point", "coordinates": [ -122.609837793405077, 38.599187216688932 ] } },
{ "type": "Feature", "properties": { "name": "HELENA VIEW - JOHNSTON VINEYARDS", "status": "PROD", "prod_orig": 2000, "prod_curr": 20000, "estab_date": "09\/01\/1989", "total_size": 1200, "ava": "Calistoga" }, "geometry": { "type": "Point", "coordinates": [ -122.624906581857857, 38.600942555403257 ] } },
{ "type": "Feature", "properties": { "name": "BENNETT LANE WINERY", "status": "PROD", "prod_orig": 20000, "prod_curr": 50000, "estab_date": "09\/01\/1996", "total_size": 17550, "ava": "Calistoga" }, "geometry": { "type": "Point", "coordinates": [ -122.615273650070222, 38.599379169045164 ] } },
{ "type": "Feature", "properties": { "name": "SUMMIT LAKE VINEYARDS", "status": "PROD", "prod_orig": 3000, "prod_curr": 12000, "estab_date": "09\/01\/1985", "total_size": 2500, "ava": "Howell Mountain" }, "geometry": { "type": "Point", "coordinates": [ -122.460313044219589, 38.600112527446583 ] } },
{ "type": "Feature", "properties": { "name": "ARROYO WINERY", "status": "PROD", "prod_orig": 10000, "prod_curr": 20000, "estab_date": "12\/01\/1982", "total_size": 9586, "ava": "Calistoga" }, "geometry": { "type": "Point", "coordinates": [ -122.588574979177409, 38.597259054221141 ] } },
{ "type": "Feature", "properties": { "name": "OUTPOST WINES", "status": "PROD", "prod_orig": 1800, "prod_curr": 50000, "estab_date": "09\/01\/1988", "total_size": 9155, "ava": "Howell Mountain" }, "geometry": { "type": "Point", "coordinates": [ -122.463380863644574, 38.598080318766044 ] } },
{ "type": "Feature", "properties": { "name": "DUNN VINEYARDS", "status": "PROD", "prod_orig": 5000, "prod_curr": 20000, "estab_date": "12\/01\/1982", "total_size": 8050, "ava": "Howell Mountain" }, "geometry": { "type": "Point", "coordinates": [ -122.451457245475666, 38.593299388890543 ] } },
{ "type": "Feature", "properties": { "name": "SUMMERS WINERY", "status": "PROD", "prod_orig": 20000, "prod_curr": 100000, "estab_date": "09\/01\/1984", "total_size": 13948, "ava": "Calistoga" }, "geometry": { "type": "Point", "coordinates": [ -122.605076454994929, 38.592296505678014 ] } },
{ "type": "Feature", "properties": { "name": "LAURA MICHAEL WINES", "status": "PRODMD", "prod_orig": 5000, "prod_curr": 5000, "estab_date": "12\/01\/1980", "total_size": 600, "ava": "Calistoga" }, "geometry": { "type": "Point", "coordinates": [ -122.578409425570584, 38.59176997947776 ] } },
{ "type": "Feature", "properties": { "name": "ARAUJO ESTATES WINERY", "status": "PROD", "prod_orig": 20000, "prod_curr": 20000, "estab_date": "09\/01\/1992", "total_size": 18403, "ava": "Calistoga" }, "geometry": { "type": "Point", "coordinates": [ -122.553988545120021, 38.584647990980677 ] } },
{ "type": "Feature", "properties": { "name": "THEOREM WINERY", "status": "APVD", "prod_orig": 20000, "prod_curr": 20000, "estab_date": "12\/01\/1985", "total_size": 23925, "ava": "Diamond Mountain District" }, "geometry": { "type": "Point", "coordinates": [ -122.617383511438746, 38.576121691585975 ] } },
{ "type": "Feature", "properties": { "name": "FAIRVIEW ESTATES WINERY", "status": "PROD", "prod_orig": 45000, "prod_curr": 155048, "estab_date": "09\/01\/1970", "total_size": 45002, "ava": "Calistoga" }, "geometry": { "type": "Point", "coordinates": [ -122.549492224497811, 38.575457458914194 ] } },
{ "type": "Feature", "properties": { "name": "DUTCH HENRY WINERY", "status": "PROD", "prod_orig": 20000, "prod_curr": 20000, "estab_date": "05\/01\/1984", "total_size": 7100, "ava": "Calistoga" }, "geometry": { "type": "Point", "coordinates": [ -122.525698261008117, 38.577024675150753 ] } },
{ "type": "Feature", "properties": { "name": "CLOS PEGASE  INC", "status": "PROD", "prod_orig": 55000, "prod_curr": 200000, "estab_date": "09\/01\/1986", "total_size": 43100, "ava": "Calistoga" }, "geometry": { "type": "Point", "coordinates": [ -122.555177559483781, 38.572228903175798 ] } },
{ "type": "Feature", "properties": { "name": "PAOLETTI ESTATES WINERY", "status": "PROD", "prod_orig": 16000, "prod_curr": 16000, "estab_date": "09\/01\/1995", "total_size": 10004, "ava": "Calistoga" }, "geometry": { "type": "Point", "coordinates": [ -122.544154704363464, 38.572758693176887 ] } },
{ "type": "Feature", "properties": { "name": "STERLING VINEYARDS", "status": "PROD", "prod_orig": 730000, "prod_curr": 1500000, "estab_date": "09\/01\/1969", "total_size": 161362, "ava": "Calistoga" }, "geometry": { "type": "Point", "coordinates": [ -122.544966216432925, 38.569554820514774 ] } },
{ "type": "Feature", "properties": { "name": "REVERIE ON DIAMOND MOUNTAIN", "status": "PROD", "prod_orig": 5000, "prod_curr": 9200, "estab_date": "09\/21\/1995", "total_size": 9947, "ava": "Diamond Mountain District" }, "geometry": { "type": "Point", "coordinates": [ -122.577829685402051, 38.566852687031314 ] } },
{ "type": "Feature", "properties": { "name": "VON STRASSER WINERY", "status": "PROD", "prod_orig": 2500, "prod_curr": 25000, "estab_date": "09\/01\/1980", "total_size": 11100, "ava": "Diamond Mountain District" }, "geometry": { "type": "Point", "coordinates": [ -122.575115655950853, 38.566646184750248 ] } },
{ "type": "Feature", "properties": { "name": "LADERA WINERY", "status": "PROD", "prod_orig": 31000, "prod_curr": 150000, "estab_date": "09\/01\/1985", "total_size": 39247, "ava": "Howell Mountain" }, "geometry": { "type": "Point", "coordinates": [ -122.459184670390329, 38.568609523615592 ] } },
{ "type": "Feature", "properties": { "name": "DIAMOND CREEK VINEYARDS", "status": "PROD", "prod_orig": 5000, "prod_curr": 10000, "estab_date": "09\/01\/1972", "total_size": 9000, "ava": "Diamond Mountain District" }, "geometry": { "type": "Point", "coordinates": [ -122.580540369029123, 38.565571524467423 ] } },
{ "type": "Feature", "properties": { "name": "TWOMEY CELLARS", "status": "PROD", "prod_orig": 20000, "prod_curr": 81500, "estab_date": "09\/01\/1973", "total_size": 18940, "ava": "Calistoga" }, "geometry": { "type": "Point", "coordinates": [ -122.556985537948123, 38.565905569876314 ] } },
{ "type": "Feature", "properties": { "name": "COOK FAMILY WINERY", "status": "PROD", "prod_orig": 6500, "prod_curr": 20000, "estab_date": "09\/01\/1990", "total_size": 2789, "ava": "St Helena" }, "geometry": { "type": "Point", "coordinates": [ -122.496870267836769, 38.56137761713007 ] } },
{ "type": "Feature", "properties": { "name": "WERMUTH WINERY\/RANCHO DE LAS FLORES", "status": "PROD", "prod_orig": 20000, "prod_curr": 20000, "estab_date": "09\/01\/1983", "total_size": 775, "ava": "Calistoga" }, "geometry": { "type": "Point", "coordinates": [ -122.510339123318929, 38.562958682483483 ] } },
{ "type": "Feature", "properties": { "name": "VIADER VINEYARDS", "status": "PROD", "prod_orig": 32000, "prod_curr": 32000, "estab_date": "09\/01\/1993", "total_size": 18814, "ava": "Napa Valley" }, "geometry": { "type": "Point", "coordinates": [ -122.473755546587682, 38.560143789613662 ] } },
{ "type": "Feature", "properties": { "name": "FRANK FAMILY VINEYARDS", "status": "PROD", "prod_orig": 350000, "prod_curr": 564500, "estab_date": "09\/01\/1952", "total_size": 102570, "ava": "Calistoga" }, "geometry": { "type": "Point", "coordinates": [ -122.521841928999621, 38.559368904138587 ] } },
{ "type": "Feature", "properties": { "name": "BENESSERE", "status": "PROD", "prod_orig": 40000, "prod_curr": 40000, "estab_date": "09\/01\/1980", "total_size": 9994, "ava": "St Helena" }, "geometry": { "type": "Point", "coordinates": [ -122.505807303556892, 38.551965645705955 ] } },
{ "type": "Feature", "properties": { "name": "LA JOTA VINEYARD", "status": "PROD", "prod_orig": 10000, "prod_curr": 20000, "estab_date": "09\/01\/1982", "total_size": 10700, "ava": "Howell Mountain" }, "geometry": { "type": "Point", "coordinates": [ -122.417282597637126, 38.554167735058932 ] } },
{ "type": "Feature", "properties": { "name": "SCHRAMSBERG VINEYARDS WINERY", "status": "PROD", "prod_orig": 32000, "prod_curr": 180000, "estab_date": "09\/01\/1973", "total_size": 94716, "ava": "Diamond Mountain District" }, "geometry": { "type": "Point", "coordinates": [ -122.538026082916872, 38.550444281925671 ] } },
{ "type": "Feature", "properties": { "name": "ALTA VINEYARD CELLAR", "status": "PROD", "prod_orig": 5000, "prod_curr": 5000, "estab_date": "09\/01\/1980", "total_size": 480, "ava": "Diamond Mountain District" }, "geometry": { "type": "Point", "coordinates": [ -122.535585191270314, 38.551355243213386 ] } },
{ "type": "Feature", "properties": { "name": "BREMER FAMILY WINERY", "status": "PROD", "prod_orig": 15000, "prod_curr": 15000, "estab_date": "09\/01\/1979", "total_size": 22916, "ava": "Napa Valley" }, "geometry": { "type": "Point", "coordinates": [ -122.470815881958885, 38.550829910685813 ] } },
{ "type": "Feature", "properties": { "name": "TUDAL WINERY", "status": "PROD", "prod_orig": 1000, "prod_curr": 3500, "estab_date": "09\/01\/1979", "total_size": 1248, "ava": "St Helena" }, "geometry": { "type": "Point", "coordinates": [ -122.50343209881558, 38.548869316663534 ] } },
{ "type": "Feature", "properties": { "name": "ROMBAUER VINEYARDS", "status": "PROD", "prod_orig": 20000, "prod_curr": 450000, "estab_date": "12\/01\/1982", "total_size": 72950, "ava": "St Helena" }, "geometry": { "type": "Point", "coordinates": [ -122.493003397615595, 38.545849063190481 ] } },
{ "type": "Feature", "properties": { "name": "CHATEAU BOSWELL", "status": "PROD", "prod_orig": 48000, "prod_curr": 48000, "estab_date": "09\/01\/1982", "total_size": 18060, "ava": "St Helena" }, "geometry": { "type": "Point", "coordinates": [ -122.489326171358812, 38.54448140599338 ] } },
{ "type": "Feature", "properties": { "name": "CASA NUESTRA", "status": "PROD", "prod_orig": 5000, "prod_curr": 5000, "estab_date": "09\/01\/1980", "total_size": 3420, "ava": "St Helena" }, "geometry": { "type": "Point", "coordinates": [ -122.495225238068315, 38.543552897031795 ] } },
{ "type": "Feature", "properties": { "name": "TURLEY WINE CELLARS", "status": "PROD", "prod_orig": 3000, "prod_curr": 65000, "estab_date": "09\/01\/1985", "total_size": 13171, "ava": "St Helena" }, "geometry": { "type": "Point", "coordinates": [ -122.507062032498183, 38.540803748284766 ] } },
{ "type": "Feature", "properties": { "name": "VOLKER EISELE FAMILY ESTATE", "status": "PROD", "prod_orig": 5000, "prod_curr": 20000, "estab_date": "09\/24\/1990", "total_size": 2400, "ava": "Chiles Valley District" }, "geometry": { "type": "Point", "coordinates": [ -122.326131522147378, 38.532585513854713 ] } },
{ "type": "Feature", "properties": { "name": "EL MOLINO WINERY", "status": "PROD", "prod_orig": 3000, "prod_curr": 3000, "estab_date": "09\/01\/1988", "total_size": 5500, "ava": "Spring Mountain District" }, "geometry": { "type": "Point", "coordinates": [ -122.5102231782964, 38.539652690613529 ] } },
{ "type": "Feature", "properties": { "name": "STONY HILL VINEYARD", "status": "PROD", "prod_orig": 8700, "prod_curr": 8700, "estab_date": "09\/01\/1953", "total_size": 0, "ava": "Spring Mountain District" }, "geometry": { "type": "Point", "coordinates": [ -122.530162064995821, 38.534700671564664 ] } },
{ "type": "Feature", "properties": { "name": "ARNS WINERY", "status": "PROD", "prod_orig": 2000, "prod_curr": 10000, "estab_date": "09\/01\/1990", "total_size": 800, "ava": "Napa Valley" }, "geometry": { "type": "Point", "coordinates": [ -122.458816359101348, 38.534723794473905 ] } },
{ "type": "Feature", "properties": { "name": "SABINA VINEYARDS", "status": "PROD", "prod_orig": 1800, "prod_curr": 8000, "estab_date": "12\/01\/1984", "total_size": 1600, "ava": "St Helena" }, "geometry": { "type": "Point", "coordinates": [ -122.50912543820867, 38.536967191838244 ] } },
{ "type": "Feature", "properties": { "name": "RUSTRIDGE WINERY", "status": "PROD", "prod_orig": 5000, "prod_curr": 5000, "estab_date": "12\/01\/1985", "total_size": 2000, "ava": "Chiles Valley District" }, "geometry": { "type": "Point", "coordinates": [ -122.318020156752468, 38.52843464863593 ] } },
{ "type": "Feature", "properties": { "name": "BARNETT VINEYARDS", "status": "PROD", "prod_orig": 20000, "prod_curr": 20000, "estab_date": "12\/01\/1988", "total_size": 5076, "ava": "Spring Mountain District" }, "geometry": { "type": "Point", "coordinates": [ -122.551212666833536, 38.532376021358424 ] } },
{ "type": "Feature", "properties": { "name": "SMITH MADRONE VINEYARDS", "status": "PROD", "prod_orig": 18000, "prod_curr": 18000, "estab_date": "09\/01\/1977", "total_size": 3200, "ava": "Spring Mountain District" }, "geometry": { "type": "Point", "coordinates": [ -122.548394559789955, 38.532547305921092 ] } },
{ "type": "Feature", "properties": { "name": "EHLERS ESTATE WINERY", "status": "PROD", "prod_orig": 13000, "prod_curr": 25000, "estab_date": "09\/01\/1992", "total_size": 22570, "ava": "St Helena" }, "geometry": { "type": "Point", "coordinates": [ -122.498354212034002, 38.531991423597489 ] } },
{ "type": "Feature", "properties": { "name": "METZGER VINEYARDS", "status": "UNKNWN", "prod_orig": 800, "prod_curr": 800, "estab_date": "09\/01\/1990", "total_size": 670, "ava": "St Helena" }, "geometry": { "type": "Point", "coordinates": [ -122.505057504770846, 38.531746112038945 ] } },
{ "type": "Feature", "properties": { "name": "BEHRENS FAMILY WINERY", "status": "PRODMD", "prod_orig": 10000, "prod_curr": 10000, "estab_date": "09\/01\/2001", "total_size": 2000, "ava": "Spring Mountain District" }, "geometry": { "type": "Point", "coordinates": [ -122.558890747831171, 38.532521790873609 ] } },
{ "type": "Feature", "properties": { "name": "RITCHIE CREEK VINEYARDS", "status": "PROD", "prod_orig": 1000, "prod_curr": 5000, "estab_date": "12\/01\/1981", "total_size": 500, "ava": "Spring Mountain District" }, "geometry": { "type": "Point", "coordinates": [ -122.562106051132574, 38.528410974571521 ] } },
{ "type": "Feature", "properties": { "name": "SHERWIN FAMILY VINEYARDS", "status": "PROD", "prod_orig": 150, "prod_curr": 6500, "estab_date": "09\/01\/1989", "total_size": 5008, "ava": "Spring Mountain District" }, "geometry": { "type": "Point", "coordinates": [ -122.557157427406224, 38.530811874783907 ] } },
{ "type": "Feature", "properties": { "name": "GREEN AND RED VINEYARD", "status": "PROD", "prod_orig": 960, "prod_curr": 2560, "estab_date": "12\/01\/1987", "total_size": 4712, "ava": "Chiles Valley District" }, "geometry": { "type": "Point", "coordinates": [ -122.339358901674956, 38.530559771700837 ] } },
{ "type": "Feature", "properties": { "name": "ROBERT KEENAN WINERY", "status": "PROD", "prod_orig": 50000, "prod_curr": 50000, "estab_date": "09\/01\/1977", "total_size": 10006, "ava": "Spring Mountain District" }, "geometry": { "type": "Point", "coordinates": [ -122.537577694423121, 38.524433709562977 ] } },
{ "type": "Feature", "properties": { "name": "DUCKHORN VINEYARDS", "status": "PROD", "prod_orig": 36000, "prod_curr": 160000, "estab_date": "09\/01\/1975", "total_size": 32933, "ava": "St Helena" }, "geometry": { "type": "Point", "coordinates": [ -122.491215913271645, 38.529989957894394 ] } },
{ "type": "Feature", "properties": { "name": "TRINCHERO NAPA VALLEY", "status": "PROD", "prod_orig": 10000, "prod_curr": 100000, "estab_date": "12\/01\/1981", "total_size": 37507, "ava": "St Helena" }, "geometry": { "type": "Point", "coordinates": [ -122.496361214221324, 38.528419288828815 ] } },
{ "type": "Feature", "properties": { "name": "SCHWEIGER VINEYARDS", "status": "PROD", "prod_orig": 20000, "prod_curr": 20000, "estab_date": "09\/01\/1995", "total_size": 15664, "ava": "Spring Mountain District" }, "geometry": { "type": "Point", "coordinates": [ -122.546465150122515, 38.527108820601654 ] } },
{ "type": "Feature", "properties": { "name": "PHILIP VINEYARD", "status": "PROD", "prod_orig": 1000, "prod_curr": 20000, "estab_date": "09\/01\/1985", "total_size": 5000, "ava": "Spring Mountain District" }, "geometry": { "type": "Point", "coordinates": [ -122.536410001383175, 38.520826135719311 ] } },
{ "type": "Feature", "properties": { "name": "GRACE FAMILY WINERY", "status": "PROD", "prod_orig": 3000, "prod_curr": 7000, "estab_date": "09\/01\/1987", "total_size": 2660, "ava": "St Helena" }, "geometry": { "type": "Point", "coordinates": [ -122.497092089991114, 38.522435498146763 ] } },
{ "type": "Feature", "properties": { "name": "GUILLIAMS", "status": "PROD", "prod_orig": 700, "prod_curr": 3000, "estab_date": "09\/01\/1984", "total_size": 1486, "ava": "Spring Mountain District" }, "geometry": { "type": "Point", "coordinates": [ -122.54296920728504, 38.521780298385778 ] } },
{ "type": "Feature", "properties": { "name": "BALLENTINE WINERY", "status": "PROD", "prod_orig": 50000, "prod_curr": 50000, "estab_date": "09\/01\/1995", "total_size": 7400, "ava": "St Helena" }, "geometry": { "type": "Point", "coordinates": [ -122.490546038530056, 38.519497488070257 ] } },
{ "type": "Feature", "properties": { "name": "AMIZETTA VINEYARDS", "status": "PROD", "prod_orig": 3750, "prod_curr": 12000, "estab_date": "09\/01\/1985", "total_size": 2700, "ava": "Napa Valley" }, "geometry": { "type": "Point", "coordinates": [ -122.382242344042993, 38.520647125403322 ] } },
{ "type": "Feature", "properties": { "name": "MARKHAM WINERY", "status": "PROD", "prod_orig": 30000, "prod_curr": 429000, "estab_date": "09\/01\/1978", "total_size": 73983, "ava": "St Helena" }, "geometry": { "type": "Point", "coordinates": [ -122.4888906546811, 38.519184937653769 ] } },
{ "type": "Feature", "properties": { "name": "DOMAINE CHARBAY WINERY", "status": "PROD", "prod_orig": 20000, "prod_curr": 20000, "estab_date": "09\/01\/1993", "total_size": 7500, "ava": "Spring Mountain District" }, "geometry": { "type": "Point", "coordinates": [ -122.543880522016607, 38.519836740303589 ] } },
{ "type": "Feature", "properties": { "name": "LOKOYA", "status": "PROD", "prod_orig": 50000, "prod_curr": 50000, "estab_date": "09\/01\/1970", "total_size": 16712, "ava": "Spring Mountain District" }, "geometry": { "type": "Point", "coordinates": [ -122.540886903822724, 38.515443487952801 ] } },
{ "type": "Feature", "properties": { "name": "ST CLEMENT VINEYARDS", "status": "PROD", "prod_orig": 24000, "prod_curr": 72000, "estab_date": "09\/01\/1975", "total_size": 6600, "ava": "St Helena" }, "geometry": { "type": "Point", "coordinates": [ -122.492814738813564, 38.518274483782754 ] } },
{ "type": "Feature", "properties": { "name": "JOSEPH PHELPS VINEYARDS", "status": "PROD", "prod_orig": 420000, "prod_curr": 420000, "estab_date": "09\/01\/1975", "total_size": 63134, "ava": "St Helena" }, "geometry": { "type": "Point", "coordinates": [ -122.428711233148377, 38.507139036051463 ] } },
{ "type": "Feature", "properties": { "name": "CHATEAU CHEVALIER WINERY", "status": "PROD", "prod_orig": 24500, "prod_curr": 24500, "estab_date": "12\/01\/1973", "total_size": 3500, "ava": "Spring Mountain District" }, "geometry": { "type": "Point", "coordinates": [ -122.510274788696336, 38.514350688270987 ] } },
{ "type": "Feature", "properties": { "name": "EAGLES TRACE", "status": "PROD", "prod_orig": 20000, "prod_curr": 40000, "estab_date": "06\/01\/1986", "total_size": 26099, "ava": "Napa Valley" }, "geometry": { "type": "Point", "coordinates": [ -122.411703934674492, 38.512763041368167 ] } },
{ "type": "Feature", "properties": { "name": "BUEHLER VINEYARDS", "status": "PROD", "prod_orig": 9600, "prod_curr": 50000, "estab_date": "09\/01\/1983", "total_size": 12187, "ava": "Napa Valley" }, "geometry": { "type": "Point", "coordinates": [ -122.380511318466574, 38.511958561782357 ] } },
{ "type": "Feature", "properties": { "name": "SPRING MOUNTAIN VINEYARDS #2", "status": "PROD", "prod_orig": 1000, "prod_curr": 20000, "estab_date": "12\/01\/1990", "total_size": 8550, "ava": "Spring Mountain District" }, "geometry": { "type": "Point", "coordinates": [ -122.514078036819811, 38.507167629363131 ] } },
{ "type": "Feature", "properties": { "name": "STREBLOW WINERY", "status": "UNKNWN", "prod_orig": 2000, "prod_curr": 25000, "estab_date": "09\/01\/1985", "total_size": 360, "ava": "Spring Mountain District" }, "geometry": { "type": "Point", "coordinates": [ -122.502914271986256, 38.510865035025773 ] } },
{ "type": "Feature", "properties": { "name": "SEAVEY VINEYARD", "status": "PROD", "prod_orig": 300, "prod_curr": 20000, "estab_date": "09\/01\/1989", "total_size": 12085, "ava": "Napa Valley" }, "geometry": { "type": "Point", "coordinates": [ -122.40028383762639, 38.507675115963231 ] } },
{ "type": "Feature", "properties": { "name": "MJA WINERY", "status": "PROD", "prod_orig": 3300, "prod_curr": 15000, "estab_date": "09\/01\/1989", "total_size": 17432, "ava": "Napa Valley" }, "geometry": { "type": "Point", "coordinates": [ -122.390800815369445, 38.511125876571519 ] } },
{ "type": "Feature", "properties": { "name": "SPRING MOUNTAIN VINEYARDS", "status": "PROD", "prod_orig": 15000, "prod_curr": 48000, "estab_date": "09\/01\/1968", "total_size": 33660, "ava": "Spring Mountain District" }, "geometry": { "type": "Point", "coordinates": [ -122.491668818605575, 38.50591166197664 ] } },
{ "type": "Feature", "properties": { "name": "AUBURNJAMES WINERY", "status": "PROD", "prod_orig": 40000, "prod_curr": 100000, "estab_date": "12\/01\/1980", "total_size": 18554, "ava": "St Helena" }, "geometry": { "type": "Point", "coordinates": [ -122.439628894120247, 38.505231849628963 ] } },
{ "type": "Feature", "properties": { "name": "HEITZ WINE CELLARS", "status": "PROD", "prod_orig": 90000, "prod_curr": 144000, "estab_date": "09\/01\/1961", "total_size": 50100, "ava": "St Helena" }, "geometry": { "type": "Point", "coordinates": [ -122.417759326517483, 38.502097091875036 ] } },
{ "type": "Feature", "properties": { "name": "NICHELINI VINEYARDS", "status": "PROD", "prod_orig": 12000, "prod_curr": 12000, "estab_date": "09\/01\/1920", "total_size": 0, "ava": "Napa Valley" }, "geometry": { "type": "Point", "coordinates": [ -122.293889991995599, 38.500465460166374 ] } },
{ "type": "Feature", "properties": { "name": "NEWTON VINEYARD", "status": "PROD", "prod_orig": 18000, "prod_curr": 130000, "estab_date": "12\/01\/1979", "total_size": 34200, "ava": "Spring Mountain District" }, "geometry": { "type": "Point", "coordinates": [ -122.496274552257304, 38.501119894015019 ] } },
{ "type": "Feature", "properties": { "name": "CAIN CELLARS", "status": "PROD", "prod_orig": 59000, "prod_curr": 59000, "estab_date": "09\/01\/1982", "total_size": 26220, "ava": "Spring Mountain District" }, "geometry": { "type": "Point", "coordinates": [ -122.538169822204907, 38.497864954347428 ] } },
{ "type": "Feature", "properties": { "name": "THE TERRACES", "status": "PROD", "prod_orig": 20000, "prod_curr": 20000, "estab_date": "09\/01\/1989", "total_size": 1964, "ava": "Rutherford" }, "geometry": { "type": "Point", "coordinates": [ -122.419972626298033, 38.496090601185941 ] } },
{ "type": "Feature", "properties": { "name": "SLOAN WINERY", "status": "PROD", "prod_orig": 1200, "prod_curr": 15000, "estab_date": "09\/01\/1991", "total_size": 9293, "ava": "Napa Valley" }, "geometry": { "type": "Point", "coordinates": [ -122.398758754434866, 38.493652837812817 ] } },
{ "type": "Feature", "properties": { "name": "MARIO PERELLI MINETTI", "status": "PROD", "prod_orig": 10000, "prod_curr": 20000, "estab_date": "09\/01\/1988", "total_size": 6400, "ava": "Rutherford" }, "geometry": { "type": "Point", "coordinates": [ -122.422904199753276, 38.494328360399109 ] } },
{ "type": "Feature", "properties": { "name": "RUTHERFORD HILL WINERY", "status": "PROD", "prod_orig": 420000, "prod_curr": 640000, "estab_date": "12\/01\/1976", "total_size": 110622, "ava": "Rutherford" }, "geometry": { "type": "Point", "coordinates": [ -122.403807992481433, 38.493738287377326 ] } },
{ "type": "Feature", "properties": { "name": "LOUIS M MARTINI  WINERY", "status": "PROD", "prod_orig": 2000000, "prod_curr": 2000000, "estab_date": "09\/01\/1923", "total_size": 153762, "ava": "St Helena" }, "geometry": { "type": "Point", "coordinates": [ -122.452353518794169, 38.492436513522819 ] } },
{ "type": "Feature", "properties": { "name": "THE RANCH WINERY", "status": "PROD", "prod_orig": 700000, "prod_curr": 12520000, "estab_date": "09\/01\/1985", "total_size": 242606, "ava": "Rutherford" }, "geometry": { "type": "Point", "coordinates": [ -122.426328716512074, 38.48854419029707 ] } },
{ "type": "Feature", "properties": { "name": "SUTTER HOME WINERY", "status": "PROD", "prod_orig": 200000, "prod_curr": 200000, "estab_date": "09\/01\/1946", "total_size": 41000, "ava": "St Helena" }, "geometry": { "type": "Point", "coordinates": [ -122.453623576279469, 38.491340374340794 ] } },
{ "type": "Feature", "properties": { "name": "PRAGER WINERY", "status": "PROD", "prod_orig": 4000, "prod_curr": 8500, "estab_date": "09\/01\/1979", "total_size": 3352, "ava": "St Helena" }, "geometry": { "type": "Point", "coordinates": [ -122.454494191286543, 38.491167737050603 ] } },
{ "type": "Feature", "properties": { "name": "KELHAM WINERY", "status": "PROD", "prod_orig": 20000, "prod_curr": 100000, "estab_date": "09\/01\/1985", "total_size": 16596, "ava": "St Helena" }, "geometry": { "type": "Point", "coordinates": [ -122.435491187524249, 38.490015155993774 ] } },
{ "type": "Feature", "properties": { "name": "HALL WINERY", "status": "PROD", "prod_orig": 2805000, "prod_curr": 1260000, "estab_date": "09\/01\/1934", "total_size": 179787, "ava": "St Helena" }, "geometry": { "type": "Point", "coordinates": [ -122.453141065626923, 38.489631551501112 ] } },
{ "type": "Feature", "properties": { "name": "ROUND HILL CELLARS (RUTHERFORD RANCH)", "status": "PROD", "prod_orig": 144000, "prod_curr": 1000000, "estab_date": "09\/01\/1987", "total_size": 29685, "ava": "Rutherford" }, "geometry": { "type": "Point", "coordinates": [ -122.407127323745385, 38.488541658196226 ] } },
{ "type": "Feature", "properties": { "name": "SATTUI WINERY", "status": "PROD", "prod_orig": 20000, "prod_curr": 96000, "estab_date": "09\/01\/1975", "total_size": 37650, "ava": "St Helena" }, "geometry": { "type": "Point", "coordinates": [ -122.448090436476036, 38.489011089211132 ] } },
{ "type": "Feature", "properties": { "name": "NEYERS VINEYARDS WINERY", "status": "PROD", "prod_orig": 10000, "prod_curr": 40000, "estab_date": "09\/01\/1983", "total_size": 14800, "ava": "Napa Valley" }, "geometry": { "type": "Point", "coordinates": [ -122.327828218101914, 38.489461283684989 ] } },
{ "type": "Feature", "properties": { "name": "DAKOTA SHY WINERY", "status": "APVD", "prod_orig": 1000, "prod_curr": 14000, "estab_date": null, "total_size": 6060, "ava": "Rutherford" }, "geometry": { "type": "Point", "coordinates": [ -122.401165480084714, 38.48670281963107 ] } },
{ "type": "Feature", "properties": { "name": "CONN CREEK WINERY", "status": "PROD", "prod_orig": 260000, "prod_curr": 850000, "estab_date": "09\/01\/1980", "total_size": 30055, "ava": "Rutherford" }, "geometry": { "type": "Point", "coordinates": [ -122.40483077506255, 38.486174497403667 ] } },
{ "type": "Feature", "properties": { "name": "VILLA HELENA", "status": "PROD", "prod_orig": 6000, "prod_curr": 20000, "estab_date": "09\/01\/1984", "total_size": 5012, "ava": "St Helena" }, "geometry": { "type": "Point", "coordinates": [ -122.450765265482332, 38.485749511635319 ] } },
{ "type": "Feature", "properties": { "name": "RAYMOND VINEYARD AND CELLAR", "status": "PRODMD", "prod_orig": 50000, "prod_curr": 750000, "estab_date": "09\/01\/1985", "total_size": 125179, "ava": "Rutherford" }, "geometry": { "type": "Point", "coordinates": [ -122.434533196995034, 38.482147901893583 ] } },
{ "type": "Feature", "properties": { "name": "DELECTUS (MILAT WINERY)", "status": "PROD", "prod_orig": 20000, "prod_curr": 20000, "estab_date": "09\/01\/1986", "total_size": 5340, "ava": "St Helena" }, "geometry": { "type": "Point", "coordinates": [ -122.445971807031668, 38.485145117980089 ] } },
{ "type": "Feature", "properties": { "name": "VILLA DEL LAGO", "status": "PROD", "prod_orig": 7200, "prod_curr": 15000, "estab_date": "09\/01\/1993", "total_size": 7377, "ava": "Napa Valley" }, "geometry": { "type": "Point", "coordinates": [ -122.344573436200463, 38.484341574121075 ] } },
{ "type": "Feature", "properties": { "name": "FLEURY FAMILY WINERY", "status": "PROD", "prod_orig": 20000, "prod_curr": 20000, "estab_date": "12\/01\/1985", "total_size": 4230, "ava": "Rutherford" }, "geometry": { "type": "Point", "coordinates": [ -122.424106295347514, 38.481117426148614 ] } },
{ "type": "Feature", "properties": { "name": "SINEGAL ESTATE WINERY", "status": "PROD", "prod_orig": 13200, "prod_curr": 60000, "estab_date": "09\/01\/1983", "total_size": 20225, "ava": "St Helena" }, "geometry": { "type": "Point", "coordinates": [ -122.460192997906773, 38.481462700429176 ] } },
{ "type": "Feature", "properties": { "name": "CHAPPELLET WINERY", "status": "PROD", "prod_orig": 59445, "prod_curr": 150000, "estab_date": "09\/01\/1969", "total_size": 53136, "ava": "Napa Valley" }, "geometry": { "type": "Point", "coordinates": [ -122.335656828800097, 38.482219126464855 ] } },
{ "type": "Feature", "properties": { "name": "FLORA SPRINGS WINE CO", "status": "PRODMD", "prod_orig": 3000, "prod_curr": 120000, "estab_date": "09\/01\/1979", "total_size": 36565, "ava": "Rutherford" }, "geometry": { "type": "Point", "coordinates": [ -122.455372655360833, 38.476608790241038 ] } },
{ "type": "Feature", "properties": { "name": "MUMM NAPA VALLEY", "status": "PROD", "prod_orig": 500000, "prod_curr": 850000, "estab_date": "09\/01\/1988", "total_size": 140834, "ava": "Rutherford" }, "geometry": { "type": "Point", "coordinates": [ -122.393772343638616, 38.478343906394748 ] } },
{ "type": "Feature", "properties": { "name": "SULLIVAN FAMILY ESTATE", "status": "PROD", "prod_orig": 22500, "prod_curr": 22500, "estab_date": "09\/01\/1983", "total_size": 5894, "ava": "Rutherford" }, "geometry": { "type": "Point", "coordinates": [ -122.429853685849864, 38.478355421253546 ] } },
{ "type": "Feature", "properties": { "name": "WHITEHALL LANE WINERY", "status": "PROD", "prod_orig": 10000, "prod_curr": 200000, "estab_date": "09\/01\/1980", "total_size": 34227, "ava": "Rutherford" }, "geometry": { "type": "Point", "coordinates": [ -122.438143364355057, 38.477835184194682 ] } },
{ "type": "Feature", "properties": { "name": "FRANCISCAN WINERY", "status": "PROD", "prod_orig": 185000, "prod_curr": 1200000, "estab_date": "09\/01\/1973", "total_size": 118694, "ava": "Rutherford" }, "geometry": { "type": "Point", "coordinates": [ -122.432405348874639, 38.474583986119697 ] } },
{ "type": "Feature", "properties": { "name": "ZD WINES", "status": "PROD", "prod_orig": 25000, "prod_curr": 70000, "estab_date": "09\/01\/1979", "total_size": 22956, "ava": "Rutherford" }, "geometry": { "type": "Point", "coordinates": [ -122.389542772078585, 38.476548673303768 ] } },
{ "type": "Feature", "properties": { "name": "CAYMUS VINEYARDS", "status": "PROD", "prod_orig": 110000, "prod_curr": 110000, "estab_date": "09\/01\/1971", "total_size": 85370, "ava": "Rutherford" }, "geometry": { "type": "Point", "coordinates": [ -122.397791838787469, 38.470918558639333 ] } },
{ "type": "Feature", "properties": { "name": "HONIG CELLARS", "status": "PROD", "prod_orig": 20000, "prod_curr": 300000, "estab_date": "12\/01\/1982", "total_size": 33837, "ava": "Rutherford" }, "geometry": { "type": "Point", "coordinates": [ -122.407288830847392, 38.473057856131156 ] } },
{ "type": "Feature", "properties": { "name": "FROGS LEAP WINERY", "status": "PRODMD", "prod_orig": 240000, "prod_curr": 240000, "estab_date": "09\/01\/1996", "total_size": 38568, "ava": "Rutherford" }, "geometry": { "type": "Point", "coordinates": [ -122.402304511032057, 38.474007207070208 ] } },
{ "type": "Feature", "properties": { "name": "DANA ESTATES", "status": "PROD", "prod_orig": 20000, "prod_curr": 20000, "estab_date": "09\/01\/1989", "total_size": 27886, "ava": "Rutherford" }, "geometry": { "type": "Point", "coordinates": [ -122.450424134572302, 38.472649667944054 ] } },
{ "type": "Feature", "properties": { "name": "RUTHERFORD GROVE", "status": "PROD", "prod_orig": 35000, "prod_curr": 35000, "estab_date": "09\/01\/1977", "total_size": 7900, "ava": "Rutherford" }, "geometry": { "type": "Point", "coordinates": [ -122.435758759186072, 38.471452364122335 ] } },
{ "type": "Feature", "properties": { "name": "ALPHA OMEGA WINERY", "status": "PROD", "prod_orig": 50000, "prod_curr": 100000, "estab_date": "09\/01\/1986", "total_size": 17419, "ava": "Rutherford" }, "geometry": { "type": "Point", "coordinates": [ -122.42928555653522, 38.470427640841415 ] } },
{ "type": "Feature", "properties": { "name": "PROVENANCE VINEYARDS", "status": "PROD", "prod_orig": 85000, "prod_curr": 180000, "estab_date": "12\/01\/1987", "total_size": 39925, "ava": "Rutherford" }, "geometry": { "type": "Point", "coordinates": [ -122.43326934218986, 38.470176971744714 ] } },
{ "type": "Feature", "properties": { "name": "PINA CELLARS", "status": "PROD", "prod_orig": 20000, "prod_curr": 20000, "estab_date": "09\/01\/1982", "total_size": 3000, "ava": "Rutherford" }, "geometry": { "type": "Point", "coordinates": [ -122.377373369384699, 38.467071682373373 ] } },
{ "type": "Feature", "properties": { "name": "DAVID ARTHUR VINEYARDS", "status": "PROD", "prod_orig": 5500, "prod_curr": 30000, "estab_date": "09\/01\/1985", "total_size": 13400, "ava": "Napa Valley" }, "geometry": { "type": "Point", "coordinates": [ -122.348685264645923, 38.467662307209622 ] } },
{ "type": "Feature", "properties": { "name": "GRGICH HILLS CELLARS", "status": "PROD", "prod_orig": 50000, "prod_curr": 250000, "estab_date": "10\/01\/1977", "total_size": 46083, "ava": "Rutherford" }, "geometry": { "type": "Point", "coordinates": [ -122.429410406916062, 38.465554531114023 ] } },
{ "type": "Feature", "properties": { "name": "MINER FAMILY WINERY", "status": "PROD", "prod_orig": 120000, "prod_curr": 300000, "estab_date": "09\/01\/1996", "total_size": 41500, "ava": "Oakville" }, "geometry": { "type": "Point", "coordinates": [ -122.371060697747851, 38.462754596928811 ] } },
{ "type": "Feature", "properties": { "name": "TRES SABORES", "status": "PROD", "prod_orig": 20000, "prod_curr": 20000, "estab_date": "09\/11\/1991", "total_size": 2930, "ava": "Rutherford" }, "geometry": { "type": "Point", "coordinates": [ -122.445260675053589, 38.462135261029076 ] } },
{ "type": "Feature", "properties": { "name": "LONGMEADOW RANCH WINERY", "status": "PROD", "prod_orig": 16000, "prod_curr": 16000, "estab_date": "09\/01\/1996", "total_size": 16500, "ava": "Napa Valley" }, "geometry": { "type": "Point", "coordinates": [ -122.462869831370057, 38.46273506141786 ] } },
{ "type": "Feature", "properties": { "name": "BEAULIEU VINEYARDS", "status": "PROD", "prod_orig": 1190000, "prod_curr": 1800000, "estab_date": "09\/01\/1903", "total_size": 284940, "ava": "Rutherford" }, "geometry": { "type": "Point", "coordinates": [ -122.423381631867741, 38.460228052003679 ] } },
{ "type": "Feature", "properties": { "name": "OAKVILLE RANCH", "status": "PROD", "prod_orig": 3000, "prod_curr": 5000, "estab_date": "12\/01\/1985", "total_size": 2354, "ava": "Oakville" }, "geometry": { "type": "Point", "coordinates": [ -122.351787506267797, 38.455262909340533 ] } },
{ "type": "Feature", "properties": { "name": "NIEBAUM COPPOLA ESTATE HWY 29", "status": "PROD", "prod_orig": 10000, "prod_curr": 250000, "estab_date": "09\/01\/1933", "total_size": 93279, "ava": "Rutherford" }, "geometry": { "type": "Point", "coordinates": [ -122.430950750933775, 38.454647472623854 ] } },
{ "type": "Feature", "properties": { "name": "PEJU PROVINCE WINERY", "status": "PROD", "prod_orig": 60000, "prod_curr": 120000, "estab_date": "12\/01\/1984", "total_size": 26866, "ava": "Rutherford" }, "geometry": { "type": "Point", "coordinates": [ -122.417781749395445, 38.455457822300595 ] } },
{ "type": "Feature", "properties": { "name": "ST SUPERY VINEYARDS AND WINERY", "status": "PROD", "prod_orig": 450000, "prod_curr": 450000, "estab_date": "09\/01\/1988", "total_size": 93750, "ava": "Rutherford" }, "geometry": { "type": "Point", "coordinates": [ -122.414508524321107, 38.455260575348248 ] } },
{ "type": "Feature", "properties": { "name": "DALLA VALLE VINEYARDS", "status": "PROD", "prod_orig": 5000, "prod_curr": 20000, "estab_date": "09\/01\/1988", "total_size": 2849, "ava": "Oakville" }, "geometry": { "type": "Point", "coordinates": [ -122.358889294039969, 38.456440695684691 ] } },
{ "type": "Feature", "properties": { "name": "PLUMP JACK WINERY", "status": "PROD", "prod_orig": 25000, "prod_curr": 25000, "estab_date": "09\/18\/1981", "total_size": 7574, "ava": "Oakville" }, "geometry": { "type": "Point", "coordinates": [ -122.374278348119205, 38.45563435415793 ] } },
{ "type": "Feature", "properties": { "name": "RUDD ESTATE WINERY", "status": "PROD", "prod_orig": 35000, "prod_curr": 75000, "estab_date": "05\/01\/1980", "total_size": 32088, "ava": "Oakville" }, "geometry": { "type": "Point", "coordinates": [ -122.365814887206525, 38.457944683028849 ] } },
{ "type": "Feature", "properties": { "name": "STAR VINEYARDS", "status": "UNKNWN", "prod_orig": 30000, "prod_curr": 30000, "estab_date": "09\/01\/1985", "total_size": 2800, "ava": "Rutherford" }, "geometry": { "type": "Point", "coordinates": [ -122.419797978578231, 38.456570166377354 ] } },
{ "type": "Feature", "properties": { "name": "NIEBAUM COPPOLA ESTATE NIEBAUM LN", "status": "PROD", "prod_orig": 25000, "prod_curr": 50000, "estab_date": "12\/01\/1978", "total_size": 30090, "ava": "Rutherford" }, "geometry": { "type": "Point", "coordinates": [ -122.437693628918055, 38.453178804922949 ] } },
{ "type": "Feature", "properties": { "name": "GROTH WINERY AND OAKCROSS VINEYARDS", "status": "PROD", "prod_orig": 24000, "prod_curr": 200000, "estab_date": "09\/01\/1983", "total_size": 49480, "ava": "Oakville" }, "geometry": { "type": "Point", "coordinates": [ -122.380217884375654, 38.449305188511694 ] } },
{ "type": "Feature", "properties": { "name": "FOLEY JOHNSON WINERY", "status": "PROD", "prod_orig": 10000, "prod_curr": 20000, "estab_date": "09\/19\/1999", "total_size": 20616, "ava": "Rutherford" }, "geometry": { "type": "Point", "coordinates": [ -122.413641219054867, 38.450214616765614 ] } },
{ "type": "Feature", "properties": { "name": "SEQUOIA GROVE VINEYARDS", "status": "PRODMD", "prod_orig": 50000, "prod_curr": 150000, "estab_date": "09\/01\/1980", "total_size": 27810, "ava": "Rutherford" }, "geometry": { "type": "Point", "coordinates": [ -122.411820150319073, 38.449594706469746 ] } },
{ "type": "Feature", "properties": { "name": "VILLA RAGAZZI", "status": "PROD", "prod_orig": 20000, "prod_curr": 20000, "estab_date": "09\/01\/1984", "total_size": 916, "ava": "Oakville" }, "geometry": { "type": "Point", "coordinates": [ -122.385758518543085, 38.452388685349639 ] } },
{ "type": "Feature", "properties": { "name": "SADDLEBACK CELLARS", "status": "PROD", "prod_orig": 5000, "prod_curr": 8000, "estab_date": "09\/01\/1984", "total_size": 4000, "ava": "Oakville" }, "geometry": { "type": "Point", "coordinates": [ -122.388214530764884, 38.449393243498385 ] } },
{ "type": "Feature", "properties": { "name": "SWANSON VINEYARDS", "status": "PROD", "prod_orig": 4000, "prod_curr": 42500, "estab_date": "09\/01\/1987", "total_size": 8480, "ava": "Rutherford" }, "geometry": { "type": "Point", "coordinates": [ -122.419113520058573, 38.450318466282113 ] } },
{ "type": "Feature", "properties": { "name": "SCREAMING EAGLE WINERY", "status": "PROD", "prod_orig": 20000, "prod_curr": 20000, "estab_date": "09\/01\/1989", "total_size": 38333, "ava": "Oakville" }, "geometry": { "type": "Point", "coordinates": [ -122.363095382453622, 38.446784929183785 ] } },
{ "type": "Feature", "properties": { "name": "VINE CLIFF WINERY", "status": "PROD", "prod_orig": 10000, "prod_curr": 48000, "estab_date": "09\/01\/1989", "total_size": 22780, "ava": "Oakville" }, "geometry": { "type": "Point", "coordinates": [ -122.350631709243899, 38.447093892119852 ] } },
{ "type": "Feature", "properties": { "name": "TURNBULL WINE CELLARS", "status": "PROD", "prod_orig": 2500, "prod_curr": 250000, "estab_date": "12\/01\/1979", "total_size": 40543, "ava": "Oakville" }, "geometry": { "type": "Point", "coordinates": [ -122.408309025929015, 38.444377899681207 ] } },
{ "type": "Feature", "properties": { "name": "MOSS CREEK WINERY", "status": "PROD", "prod_orig": 100000, "prod_curr": 100000, "estab_date": "09\/01\/1987", "total_size": 23100, "ava": "Napa Valley" }, "geometry": { "type": "Point", "coordinates": [ -122.194850074155624, 38.445903609554883 ] } },
{ "type": "Feature", "properties": { "name": "SILVER OAK WINE CELLARS", "status": "PROD", "prod_orig": 18000, "prod_curr": 210000, "estab_date": "12\/01\/1981", "total_size": 75000, "ava": "Oakville" }, "geometry": { "type": "Point", "coordinates": [ -122.381258915468138, 38.440886891351177 ] } },
{ "type": "Feature", "properties": { "name": "OPUS ONE WINERY", "status": "PROD", "prod_orig": 82000, "prod_curr": 250000, "estab_date": "09\/07\/1992", "total_size": 131906, "ava": "Oakville" }, "geometry": { "type": "Point", "coordinates": [ -122.399708237248959, 38.441367207127882 ] } },
{ "type": "Feature", "properties": { "name": "ROBERT MONDAVI WINERY", "status": "PROD", "prod_orig": 1200000, "prod_curr": 3000000, "estab_date": "09\/01\/1966", "total_size": 195377, "ava": "Oakville" }, "geometry": { "type": "Point", "coordinates": [ -122.409670886104934, 38.441664913937899 ] } },
{ "type": "Feature", "properties": { "name": "NAPA WINE CO", "status": "PROD", "prod_orig": 1000000, "prod_curr": 4000000, "estab_date": "09\/01\/1933", "total_size": 80955, "ava": "Oakville" }, "geometry": { "type": "Point", "coordinates": [ -122.401882970781628, 38.436638395893837 ] } },
{ "type": "Feature", "properties": { "name": "CARDINALE WINERY", "status": "PROD", "prod_orig": 50000, "prod_curr": 1280000, "estab_date": "09\/01\/1981", "total_size": 172060, "ava": "Oakville" }, "geometry": { "type": "Point", "coordinates": [ -122.389244897039632, 38.429572479475489 ] } },
{ "type": "Feature", "properties": { "name": "ANTICA NAPA VALLEY", "status": "PROD", "prod_orig": 450000, "prod_curr": 450000, "estab_date": "10\/01\/1992", "total_size": 83000, "ava": "Atlas Peak" }, "geometry": { "type": "Point", "coordinates": [ -122.292410772268326, 38.42764700855615 ] } },
{ "type": "Feature", "properties": { "name": "ASTRALE E TERRA  WINERY", "status": "PROD", "prod_orig": 1000, "prod_curr": 20000, "estab_date": "09\/01\/1990", "total_size": 864, "ava": "Atlas Peak" }, "geometry": { "type": "Point", "coordinates": [ -122.294793983716602, 38.4312281379027 ] } },
{ "type": "Feature", "properties": { "name": "GOOSECROSS CELLARS", "status": "PROD", "prod_orig": 9000, "prod_curr": 30000, "estab_date": "09\/01\/1988", "total_size": 6511, "ava": "Yountville" }, "geometry": { "type": "Point", "coordinates": [ -122.353858281363685, 38.427051236784784 ] } },
{ "type": "Feature", "properties": { "name": "LA VALLETTE WINERY", "status": "UNKNWN", "prod_orig": 20000, "prod_curr": 20000, "estab_date": "09\/01\/1989", "total_size": 1600, "ava": "Napa Valley" }, "geometry": { "type": "Point", "coordinates": [ -122.303441491928055, 38.427143020062694 ] } },
{ "type": "Feature", "properties": { "name": "FAR NIENTE WINERY", "status": "PROD", "prod_orig": 60000, "prod_curr": 175000, "estab_date": "09\/01\/1982", "total_size": 57000, "ava": "Oakville" }, "geometry": { "type": "Point", "coordinates": [ -122.403243172736907, 38.425878573008617 ] } },
{ "type": "Feature", "properties": { "name": "ROBERT SINSKEY VINEYARDS", "status": "PROD", "prod_orig": 65000, "prod_curr": 65000, "estab_date": "09\/01\/1989", "total_size": 19685, "ava": "Stags Leap District" }, "geometry": { "type": "Point", "coordinates": [ -122.337001065885133, 38.425421143301698 ] } },
{ "type": "Feature", "properties": { "name": "CLIFF LEDE VINEYARDS", "status": "PROD", "prod_orig": 30000, "prod_curr": 120000, "estab_date": "09\/01\/1979", "total_size": 57730, "ava": "Stags Leap District" }, "geometry": { "type": "Point", "coordinates": [ -122.344580952240278, 38.423981204748578 ] } },
{ "type": "Feature", "properties": { "name": "HARLAN ESTATE II", "status": "PROD", "prod_orig": 144000, "prod_curr": 144000, "estab_date": "09\/01\/1980", "total_size": 65627, "ava": "Oakville" }, "geometry": { "type": "Point", "coordinates": [ -122.414736265133143, 38.421395326412913 ] } },
{ "type": "Feature", "properties": { "name": "PARADIGM WINERY", "status": "PRODMD", "prod_orig": 6000, "prod_curr": 30000, "estab_date": "09\/01\/1990", "total_size": 4616, "ava": "Oakville" }, "geometry": { "type": "Point", "coordinates": [ -122.393875559659051, 38.420720419264505 ] } },
{ "type": "Feature", "properties": { "name": "SHAFER VINEYARDS", "status": "PROD", "prod_orig": 25000, "prod_curr": 200000, "estab_date": "06\/01\/1979", "total_size": 42530, "ava": "Stags Leap District" }, "geometry": { "type": "Point", "coordinates": [ -122.32670016467118, 38.420427090343004 ] } },
{ "type": "Feature", "properties": { "name": "BALDACCI FAMILY VINEYARDS", "status": "PRODMD", "prod_orig": 20000, "prod_curr": 20000, "estab_date": "09\/01\/1989", "total_size": 9816, "ava": "Stags Leap District" }, "geometry": { "type": "Point", "coordinates": [ -122.337654084688026, 38.421045342138498 ] } },
{ "type": "Feature", "properties": { "name": "FOLIE A DEUX", "status": "PROD", "prod_orig": 3600, "prod_curr": 50000, "estab_date": "09\/01\/1996", "total_size": 9700, "ava": "Oakville" }, "geometry": { "type": "Point", "coordinates": [ -122.39020096541114, 38.421182876497824 ] } },
{ "type": "Feature", "properties": { "name": "COSENTINO WINERY", "status": "PROD", "prod_orig": 30000, "prod_curr": 30000, "estab_date": "09\/01\/1990", "total_size": 12850, "ava": "Oakville" }, "geometry": { "type": "Point", "coordinates": [ -122.388749155855862, 38.419293774902997 ] } },
{ "type": "Feature", "properties": { "name": "QUIXOTE WINERY", "status": "PROD", "prod_orig": 20000, "prod_curr": 20000, "estab_date": "09\/01\/1997", "total_size": 8050, "ava": "Stags Leap District" }, "geometry": { "type": "Point", "coordinates": [ -122.323871509469015, 38.417792117325071 ] } },
{ "type": "Feature", "properties": { "name": "STAG'S LEAP WINERY (DOUMANI 5)", "status": "PROD", "prod_orig": 60000, "prod_curr": 315000, "estab_date": "09\/01\/1993", "total_size": 88189, "ava": "Stags Leap District" }, "geometry": { "type": "Point", "coordinates": [ -122.3212245596131, 38.41787845326359 ] } },
{ "type": "Feature", "properties": { "name": "HAKANSON WINERY", "status": "UNKNWN", "prod_orig": 20000, "prod_curr": 20000, "estab_date": "04\/12\/1996", "total_size": 720, "ava": "Napa Valley" }, "geometry": { "type": "Point", "coordinates": [ -122.421145671147457, 38.415046563021505 ] } },
{ "type": "Feature", "properties": { "name": "STAGS LEAP WINE WINERY (DOUMANI 1)", "status": "PROD", "prod_orig": 5000, "prod_curr": 60000, "estab_date": "12\/01\/1973", "total_size": 23939, "ava": "Stags Leap District" }, "geometry": { "type": "Point", "coordinates": [ -122.321006203075441, 38.415562942631396 ] } },
{ "type": "Feature", "properties": { "name": "BERINGER WINE ESTATES", "status": "PROD", "prod_orig": 20000, "prod_curr": 20000, "estab_date": "09\/01\/1991", "total_size": 5400, "ava": "Stags Leap District" }, "geometry": { "type": "Point", "coordinates": [ -122.320546820955727, 38.412287948222378 ] } },
{ "type": "Feature", "properties": { "name": "BOND ESTATES", "status": "PROD", "prod_orig": 6000, "prod_curr": 20000, "estab_date": "09\/01\/1988", "total_size": 14802, "ava": "Napa Valley" }, "geometry": { "type": "Point", "coordinates": [ -122.411738112780327, 38.41232460653162 ] } },
{ "type": "Feature", "properties": { "name": "SILVERADO VINEYARDS", "status": "PROD", "prod_orig": 96000, "prod_curr": 360000, "estab_date": "09\/01\/1981", "total_size": 65030, "ava": "Stags Leap District" }, "geometry": { "type": "Point", "coordinates": [ -122.336099040200466, 38.411748446577668 ] } },
{ "type": "Feature", "properties": { "name": "ODETTE WINERY", "status": "PROD", "prod_orig": 2000, "prod_curr": 59999, "estab_date": "09\/01\/1983", "total_size": 25840, "ava": "Stags Leap District" }, "geometry": { "type": "Point", "coordinates": [ -122.328173083950148, 38.406357334701838 ] } },
{ "type": "Feature", "properties": { "name": "DOMINUS ESTATE WINERY", "status": "PROD", "prod_orig": 75000, "prod_curr": 125000, "estab_date": "10\/01\/1997", "total_size": 48000, "ava": "Yountville" }, "geometry": { "type": "Point", "coordinates": [ -122.372704438013741, 38.405613993973056 ] } },
{ "type": "Feature", "properties": { "name": "PINE RIDGE WINERY", "status": "PROD", "prod_orig": 120000, "prod_curr": 300000, "estab_date": "09\/01\/1978", "total_size": 67726, "ava": "Stags Leap District" }, "geometry": { "type": "Point", "coordinates": [ -122.331815697745427, 38.405475100438032 ] } },
{ "type": "Feature", "properties": { "name": "STAGS LEAP WINE CELLARS", "status": "PROD", "prod_orig": 20000, "prod_curr": 330000, "estab_date": "06\/01\/1973", "total_size": 88108, "ava": "Stags Leap District" }, "geometry": { "type": "Point", "coordinates": [ -122.324258160040898, 38.398383978085299 ] } },
{ "type": "Feature", "properties": { "name": "REGUSCI WINERY", "status": "PROD", "prod_orig": 25000, "prod_curr": 25000, "estab_date": "09\/01\/1996", "total_size": 2980, "ava": "Stags Leap District" }, "geometry": { "type": "Point", "coordinates": [ -122.313691884149918, 38.397819017626631 ] } },
{ "type": "Feature", "properties": { "name": "DOMAINE CHANDON", "status": "PROD", "prod_orig": 250000, "prod_curr": 1980000, "estab_date": "09\/01\/1975", "total_size": 326074, "ava": "Yountville" }, "geometry": { "type": "Point", "coordinates": [ -122.365504328428273, 38.397707799666392 ] } },
{ "type": "Feature", "properties": { "name": "HARTWELL WINERY", "status": "PROD", "prod_orig": 12000, "prod_curr": 36000, "estab_date": "09\/01\/1998", "total_size": 13000, "ava": "Stags Leap District" }, "geometry": { "type": "Point", "coordinates": [ -122.331095039836569, 38.40023576193741 ] } },
{ "type": "Feature", "properties": { "name": "SCIAMBRA WINERY", "status": "PROD", "prod_orig": 10000, "prod_curr": 10000, "estab_date": "10\/01\/1998", "total_size": 5159, "ava": "Atlas Peak" }, "geometry": { "type": "Point", "coordinates": [ -122.247025331602075, 38.399559418379731 ] } },
{ "type": "Feature", "properties": { "name": "CHATEAU POTELLE", "status": "PROD", "prod_orig": 6000, "prod_curr": 48000, "estab_date": "09\/01\/1978", "total_size": 5790, "ava": "Mount Veeder" }, "geometry": { "type": "Point", "coordinates": [ -122.458942628988837, 38.39341741253682 ] } },
{ "type": "Feature", "properties": { "name": "CHIMNEY ROCK VINEYARDS", "status": "PROD", "prod_orig": 59250, "prod_curr": 145000, "estab_date": "09\/01\/1989", "total_size": 48500, "ava": "Stags Leap District" }, "geometry": { "type": "Point", "coordinates": [ -122.313368327276251, 38.390071291623485 ] } },
{ "type": "Feature", "properties": { "name": "HOPPER CREEK WINERY", "status": "PROD", "prod_orig": 10000, "prod_curr": 20000, "estab_date": "09\/01\/1984", "total_size": 3300, "ava": "Yountville" }, "geometry": { "type": "Point", "coordinates": [ -122.346647522427602, 38.390902922998698 ] } },
{ "type": "Feature", "properties": { "name": "BELL WINE CELLARS", "status": "PROD", "prod_orig": 20000, "prod_curr": 60000, "estab_date": "09\/01\/1984", "total_size": 11409, "ava": "Yountville" }, "geometry": { "type": "Point", "coordinates": [ -122.34451925994037, 38.390898309039351 ] } },
{ "type": "Feature", "properties": { "name": "CLOS DU VAL WINE CO", "status": "PROD", "prod_orig": 36000, "prod_curr": 350000, "estab_date": "09\/01\/1974", "total_size": 59882, "ava": "Stags Leap District" }, "geometry": { "type": "Point", "coordinates": [ -122.312638112764148, 38.387039731423172 ] } },
{ "type": "Feature", "properties": { "name": "McVICAR WINERY", "status": "PRODMD", "prod_orig": 20000, "prod_curr": 20000, "estab_date": "10\/01\/1995", "total_size": 1200, "ava": "Yountville" }, "geometry": { "type": "Point", "coordinates": [ -122.351669420371067, 38.386918181035824 ] } },
{ "type": "Feature", "properties": { "name": "CHATEAU CHEVRE WINERY", "status": "UNKNWN", "prod_orig": 5000, "prod_curr": 5000, "estab_date": "09\/01\/1979", "total_size": 2310, "ava": "Yountville" }, "geometry": { "type": "Point", "coordinates": [ -122.353130385532239, 38.384987123199522 ] } },
{ "type": "Feature", "properties": { "name": "ELYSE WINERY", "status": "PROD", "prod_orig": 600, "prod_curr": 60000, "estab_date": "09\/01\/1985", "total_size": 6650, "ava": "Yountville" }, "geometry": { "type": "Point", "coordinates": [ -122.354390812852429, 38.383434910832058 ] } },
{ "type": "Feature", "properties": { "name": "ARDENTE ESTATE WINERY", "status": "PRODMD", "prod_orig": 8000, "prod_curr": 8000, "estab_date": "09\/01\/2001", "total_size": 900, "ava": "Atlas Peak" }, "geometry": { "type": "Point", "coordinates": [ -122.243703557106372, 38.382683998990728 ] } },
{ "type": "Feature", "properties": { "name": "JOEL GOTT WINES", "status": "PROD", "prod_orig": 35000, "prod_curr": 120000, "estab_date": "10\/01\/1980", "total_size": 13490, "ava": "Yountville" }, "geometry": { "type": "Point", "coordinates": [ -122.353255613382203, 38.382794474300219 ] } },
{ "type": "Feature", "properties": { "name": "COMBS BROTHERS CELLARS", "status": "UNKNWN", "prod_orig": 2000, "prod_curr": 10000, "estab_date": "09\/01\/1986", "total_size": 900, "ava": "Yountville" }, "geometry": { "type": "Point", "coordinates": [ -122.353333143949143, 38.380481151651331 ] } },
{ "type": "Feature", "properties": { "name": "WING CANYON VINEYARD", "status": "PROD", "prod_orig": 12500, "prod_curr": 12500, "estab_date": "09\/01\/1992", "total_size": 0, "ava": "Mount Veeder" }, "geometry": { "type": "Point", "coordinates": [ -122.41657621965102, 38.380425235220486 ] } },
{ "type": "Feature", "properties": { "name": "WHITE ROCK VINEYARDS", "status": "PROD", "prod_orig": 5000, "prod_curr": 20000, "estab_date": "06\/01\/1987", "total_size": 6000, "ava": "Napa Valley" }, "geometry": { "type": "Point", "coordinates": [ -122.286651605371958, 38.37790239094867 ] } },
{ "type": "Feature", "properties": { "name": "WINERY OF THE ROSES", "status": "UNKNWN", "prod_orig": 20000, "prod_curr": 20000, "estab_date": "12\/01\/1982", "total_size": 4500, "ava": "Napa Valley" }, "geometry": { "type": "Point", "coordinates": [ -122.20645333049859, 38.374231298741272 ] } },
{ "type": "Feature", "properties": { "name": "SKY VINEYARDS", "status": "PROD", "prod_orig": 4000, "prod_curr": 2377, "estab_date": "09\/01\/1979", "total_size": 0, "ava": "Mount Veeder" }, "geometry": { "type": "Point", "coordinates": [ -122.448038149212124, 38.364944225238482 ] } },
{ "type": "Feature", "properties": { "name": "SIGNORELLO WINERY", "status": "PROD", "prod_orig": 20000, "prod_curr": 20000, "estab_date": "09\/01\/1987", "total_size": 2320, "ava": "Napa Valley" }, "geometry": { "type": "Point", "coordinates": [ -122.296198531650248, 38.370862339092994 ] } },
{ "type": "Feature", "properties": { "name": "KATES VINEYARD", "status": "PROD", "prod_orig": 20000, "prod_curr": 20000, "estab_date": "09\/01\/1988", "total_size": 1200, "ava": "Oak Knoll District of Napa Valley" }, "geometry": { "type": "Point", "coordinates": [ -122.319185959090873, 38.371683531627284 ] } },
{ "type": "Feature", "properties": { "name": "DARIOUSH  WINERY", "status": "PROD", "prod_orig": 25000, "prod_curr": 100000, "estab_date": "09\/01\/1989", "total_size": 21252, "ava": "Napa Valley" }, "geometry": { "type": "Point", "coordinates": [ -122.294406210464842, 38.367587974500317 ] } },
{ "type": "Feature", "properties": { "name": "MAYACAMAS VINEYARDS", "status": "PROD", "prod_orig": 50000, "prod_curr": 5000, "estab_date": "09\/01\/1944", "total_size": 0, "ava": "Mount Veeder" }, "geometry": { "type": "Point", "coordinates": [ -122.42346528419597, 38.365205335503916 ] } },
{ "type": "Feature", "properties": { "name": "MONTICELLO CELLARS (CORLEY FAMILY)", "status": "PROD", "prod_orig": 60000, "prod_curr": 100000, "estab_date": "09\/01\/1980", "total_size": 11500, "ava": "Oak Knoll District of Napa Valley" }, "geometry": { "type": "Point", "coordinates": [ -122.305821727195806, 38.361473718148936 ] } },
{ "type": "Feature", "properties": { "name": "SILENUS VINTNERS", "status": "PROD", "prod_orig": 12000, "prod_curr": 72000, "estab_date": "09\/01\/1981", "total_size": 13740, "ava": "Oak Knoll District of Napa Valley" }, "geometry": { "type": "Point", "coordinates": [ -122.339042277475144, 38.363796626342129 ] } },
{ "type": "Feature", "properties": { "name": "JARVIS VINEYARDS", "status": "PROD", "prod_orig": 40000, "prod_curr": 40000, "estab_date": "10\/01\/1992", "total_size": 72148, "ava": "Napa Valley" }, "geometry": { "type": "Point", "coordinates": [ -122.213723223938516, 38.357539506500707 ] } },
{ "type": "Feature", "properties": { "name": "MT  VEEDER WINERY", "status": "PROD", "prod_orig": 6000, "prod_curr": 20000, "estab_date": "12\/01\/1972", "total_size": 3300, "ava": "Mount Veeder" }, "geometry": { "type": "Point", "coordinates": [ -122.401703490265177, 38.360595992009081 ] } },
{ "type": "Feature", "properties": { "name": "BLACK STALLION", "status": "PROD", "prod_orig": 100000, "prod_curr": 100000, "estab_date": "09\/01\/1985", "total_size": 43600, "ava": "Oak Knoll District of Napa Valley" }, "geometry": { "type": "Point", "coordinates": [ -122.291831008632798, 38.359164598389782 ] } },
{ "type": "Feature", "properties": { "name": "ANDRETTI WINERY", "status": "PROD", "prod_orig": 20000, "prod_curr": 100000, "estab_date": "12\/01\/1985", "total_size": 15500, "ava": "Oak Knoll District of Napa Valley" }, "geometry": { "type": "Point", "coordinates": [ -122.305189296246155, 38.355878215684371 ] } },
{ "type": "Feature", "properties": { "name": "BEAU VIGNE WINERY", "status": "PRODMD", "prod_orig": 8000, "prod_curr": 8000, "estab_date": "12\/01\/1984", "total_size": 1200, "ava": "Oak Knoll District of Napa Valley" }, "geometry": { "type": "Point", "coordinates": [ -122.290039852311097, 38.357346522409877 ] } },
{ "type": "Feature", "properties": { "name": "WILLIAM HILL WINERY", "status": "PROD", "prod_orig": 335000, "prod_curr": 720000, "estab_date": "09\/01\/1990", "total_size": 132490, "ava": "Napa Valley" }, "geometry": { "type": "Point", "coordinates": [ -122.270117701150227, 38.355671473718587 ] } },
{ "type": "Feature", "properties": { "name": "DOMAINE MONTREAUX", "status": "PROD", "prod_orig": 10000, "prod_curr": 20000, "estab_date": "11\/01\/1987", "total_size": 7956, "ava": "Oak Knoll District of Napa Valley" }, "geometry": { "type": "Point", "coordinates": [ -122.308490425997235, 38.351946919115043 ] } },
{ "type": "Feature", "properties": { "name": "RAZI WINERY", "status": "PROD", "prod_orig": 20000, "prod_curr": 20000, "estab_date": "09\/01\/1989", "total_size": 4600, "ava": "Napa Valley" }, "geometry": { "type": "Point", "coordinates": [ -122.283077671934919, 38.349454934791609 ] } },
{ "type": "Feature", "properties": { "name": "SILVERADO HILL VINEYARD LLC", "status": "PROD", "prod_orig": 50000, "prod_curr": 200000, "estab_date": "10\/01\/1979", "total_size": 27454, "ava": "Oak Knoll District of Napa Valley" }, "geometry": { "type": "Point", "coordinates": [ -122.28524088075261, 38.348477902746453 ] } },
{ "type": "Feature", "properties": { "name": "SIMONE WINERY", "status": "UNKNWN", "prod_orig": 5000, "prod_curr": 5000, "estab_date": "09\/01\/1990", "total_size": 3000, "ava": "Oak Knoll District of Napa Valley" }, "geometry": { "type": "Point", "coordinates": [ -122.336685667764925, 38.346592882003804 ] } },
{ "type": "Feature", "properties": { "name": "OBRIEN FAMILY VINEYARD", "status": "PROD", "prod_orig": 20000, "prod_curr": 20000, "estab_date": "12\/01\/1982", "total_size": 4200, "ava": "Oak Knoll District of Napa Valley" }, "geometry": { "type": "Point", "coordinates": [ -122.339908338525859, 38.346049357280158 ] } },
{ "type": "Feature", "properties": { "name": "ASHES AND DIAMONDS", "status": "PROD", "prod_orig": 2000, "prod_curr": 100000, "estab_date": "09\/01\/1989", "total_size": 38419, "ava": "Oak Knoll District of Napa Valley" }, "geometry": { "type": "Point", "coordinates": [ -122.324771020167972, 38.344968505449145 ] } },
{ "type": "Feature", "properties": { "name": "LUNA VINEYARDS", "status": "PROD", "prod_orig": 50000, "prod_curr": 150000, "estab_date": "09\/01\/1980", "total_size": 16480, "ava": "Oak Knoll District of Napa Valley" }, "geometry": { "type": "Point", "coordinates": [ -122.283496575584834, 38.345174081142474 ] } },
{ "type": "Feature", "properties": { "name": "HESS COLLECTION WINERY", "status": "PROD", "prod_orig": 480000, "prod_curr": 1000000, "estab_date": "09\/01\/1932", "total_size": 92369, "ava": "Mount Veeder" }, "geometry": { "type": "Point", "coordinates": [ -122.389453094817156, 38.338356635843276 ] } },
{ "type": "Feature", "properties": { "name": "PHOENIX VINEYARDS", "status": "PROD", "prod_orig": 5000, "prod_curr": 5000, "estab_date": "09\/01\/1991", "total_size": 2580, "ava": "Oak Knoll District of Napa Valley" }, "geometry": { "type": "Point", "coordinates": [ -122.350749221232917, 38.338582606512425 ] } },
{ "type": "Feature", "properties": { "name": "ANTHEM WINERY AND VINEYARDS", "status": "PRODMD", "prod_orig": 30000, "prod_curr": 30000, "estab_date": "10\/01\/1997", "total_size": 1680, "ava": "Mount Veeder" }, "geometry": { "type": "Point", "coordinates": [ -122.353101245746288, 38.334207845907812 ] } },
{ "type": "Feature", "properties": { "name": "FRISINGER VINEYARDS", "status": "PROD", "prod_orig": 1000, "prod_curr": 20000, "estab_date": "09\/01\/1986", "total_size": 6008, "ava": "Oak Knoll District of Napa Valley" }, "geometry": { "type": "Point", "coordinates": [ -122.345349850732248, 38.330971922491443 ] } },
{ "type": "Feature", "properties": { "name": "DAVIANA WINERY", "status": "PROD", "prod_orig": 10000, "prod_curr": 20000, "estab_date": "09\/01\/1985", "total_size": 6040, "ava": "Coombsville" }, "geometry": { "type": "Point", "coordinates": [ -122.234279849381636, 38.321588142586727 ] } },
{ "type": "Feature", "properties": { "name": "SODARO WINERY", "status": "PROD", "prod_orig": 20000, "prod_curr": 20000, "estab_date": "12\/01\/1983", "total_size": 4900, "ava": "Coombsville" }, "geometry": { "type": "Point", "coordinates": [ -122.233604452859922, 38.313286287095664 ] } },
{ "type": "Feature", "properties": { "name": "FARELLA PARK VINEYARDS", "status": "PROD", "prod_orig": 8000, "prod_curr": 12500, "estab_date": "12\/01\/1985", "total_size": 5200, "ava": "Coombsville" }, "geometry": { "type": "Point", "coordinates": [ -122.223593913912879, 38.311765340419299 ] } },
{ "type": "Feature", "properties": { "name": "WHITFORD CELLARS", "status": "PROD", "prod_orig": 20000, "prod_curr": 20000, "estab_date": "09\/01\/1983", "total_size": 5705, "ava": "Coombsville" }, "geometry": { "type": "Point", "coordinates": [ -122.235046583146996, 38.297675393457318 ] } },
{ "type": "Feature", "properties": { "name": "TULOCAY WINERY", "status": "PROD", "prod_orig": 2400, "prod_curr": 7500, "estab_date": "09\/01\/1976", "total_size": 1160, "ava": "Coombsville" }, "geometry": { "type": "Point", "coordinates": [ -122.258661098965888, 38.297943709180565 ] } },
{ "type": "Feature", "properties": { "name": "STAR HILL WINERY", "status": "UNKNWN", "prod_orig": 1900, "prod_curr": 2090, "estab_date": "12\/01\/1986", "total_size": 800, "ava": "Coombsville" }, "geometry": { "type": "Point", "coordinates": [ -122.219186737592651, 38.295835187405011 ] } },
{ "type": "Feature", "properties": { "name": "GRIGGS WINERY", "status": "UNKNWN", "prod_orig": 2000, "prod_curr": 2000, "estab_date": "09\/01\/1981", "total_size": 541, "ava": "Coombsville" }, "geometry": { "type": "Point", "coordinates": [ -122.241362588268998, 38.295783817079091 ] } },
{ "type": "Feature", "properties": { "name": "TRUCHARD VINEYARDS", "status": "PROD", "prod_orig": 13000, "prod_curr": 60000, "estab_date": "09\/01\/1990", "total_size": 10070, "ava": "Los Carneros" }, "geometry": { "type": "Point", "coordinates": [ -122.323082431504318, 38.28565226664734 ] } },
{ "type": "Feature", "properties": { "name": "ARTESA WINERY", "status": "PROD", "prod_orig": 450000, "prod_curr": 900000, "estab_date": "09\/01\/1991", "total_size": 121081, "ava": "Los Carneros" }, "geometry": { "type": "Point", "coordinates": [ -122.356240888732714, 38.269134827983699 ] } },
{ "type": "Feature", "properties": { "name": "KIEU HOANG WINERY", "status": "PROD", "prod_orig": 35500, "prod_curr": 240000, "estab_date": "09\/01\/1974", "total_size": 28965, "ava": "Los Carneros" }, "geometry": { "type": "Point", "coordinates": [ -122.347852092143825, 38.268773620143399 ] } },
{ "type": "Feature", "properties": { "name": "DOMAINE CARNEROS", "status": "PROD", "prod_orig": 0, "prod_curr": 432000, "estab_date": "09\/01\/1989", "total_size": 71426, "ava": "Los Carneros" }, "geometry": { "type": "Point", "coordinates": [ -122.351412344849308, 38.255415050678188 ] } },
{ "type": "Feature", "properties": { "name": "MADONNA ESTATE - MONT ST  JOHN CELLARS", "status": "PROD", "prod_orig": 50000, "prod_curr": 50000, "estab_date": "09\/01\/1983", "total_size": 15280, "ava": "Los Carneros" }, "geometry": { "type": "Point", "coordinates": [ -122.341261522931831, 38.255812130769357 ] } },
{ "type": "Feature", "properties": { "name": "SAINTSBURY", "status": "PROD", "prod_orig": 60000, "prod_curr": 135000, "estab_date": "08\/01\/1983", "total_size": 13150, "ava": "Los Carneros" }, "geometry": { "type": "Point", "coordinates": [ -122.325406509141786, 38.250079272143459 ] } },
{ "type": "Feature", "properties": { "name": "ROBERT MONDAVI CARNEROS WINERY", "status": "PROD", "prod_orig": 0, "prod_curr": 340000, "estab_date": "09\/01\/1993", "total_size": 19640, "ava": "Los Carneros" }, "geometry": { "type": "Point", "coordinates": [ -122.360525998569045, 38.244767865706152 ] } },
{ "type": "Feature", "properties": { "name": "ETUDE WINERY", "status": "PRODMD", "prod_orig": 76000, "prod_curr": 150000, "estab_date": "09\/01\/1983", "total_size": 40520, "ava": "Los Carneros" }, "geometry": { "type": "Point", "coordinates": [ -122.314086479357414, 38.246140477857132 ] } },
{ "type": "Feature", "properties": { "name": "KENT RASSMUSSEN WINERY CARNEROS ESTATES", "status": "PROD", "prod_orig": 1200, "prod_curr": 100000, "estab_date": "12\/01\/1986", "total_size": 17162, "ava": "Los Carneros" }, "geometry": { "type": "Point", "coordinates": [ -122.312736467952334, 38.239177848198658 ] } },
{ "type": "Feature", "properties": { "name": "MCKENZIE MUELLER WINERY", "status": "PROD", "prod_orig": 20000, "prod_curr": 96000, "estab_date": "03\/03\/1990", "total_size": 24623, "ava": "Los Carneros" }, "geometry": { "type": "Point", "coordinates": [ -122.332230911458836, 38.231958253147155 ] } },
{ "type": "Feature", "properties": { "name": "LIANA ESTATES WINERY", "status": "PROD", "prod_orig": 50000, "prod_curr": 250000, "estab_date": "09\/01\/1982", "total_size": 34511, "ava": "Los Carneros" }, "geometry": { "type": "Point", "coordinates": [ -122.348961100769273, 38.230808382882749 ] } },
{ "type": "Feature", "properties": { "name": "BOUCHAINE VINEYARDS", "status": "PROD", "prod_orig": 225000, "prod_curr": 225000, "estab_date": "08\/03\/1985", "total_size": 39588, "ava": "Los Carneros" }, "geometry": { "type": "Point", "coordinates": [ -122.331230612557988, 38.226425095968288 ] } },
{ "type": "Feature", "properties": { "name": "REATA WINERY", "status": "PROD", "prod_orig": 200000, "prod_curr": 800000, "estab_date": "08\/01\/1998", "total_size": 56215, "ava": "Napa Valley" }, "geometry": { "type": "Point", "coordinates": [ -122.227557827186487, 38.219547217042923 ] } },
{ "type": "Feature", "properties": { "name": "FREEMARK ABBEY", "status": "PROD", "prod_orig": 60000, "prod_curr": 60000, "estab_date": "09\/01\/1967", "total_size": 30232, "ava": "St Helena" }, "geometry": { "type": "Point", "coordinates": [ -122.49648437024743, 38.525519736432173 ] } },
{ "type": "Feature", "properties": { "name": "TREFETHEN VINEYARDS", "status": "PROD", "prod_orig": 160000, "prod_curr": 500000, "estab_date": "09\/01\/1973", "total_size": 52500, "ava": "Oak Knoll District of Napa Valley" }, "geometry": { "type": "Point", "coordinates": [ -122.332289858970768, 38.360324158470753 ] } },
{ "type": "Feature", "properties": { "name": "CAKEBREAD CELLARS", "status": "PROD", "prod_orig": 250000, "prod_curr": 500000, "estab_date": "09\/01\/1979", "total_size": 61173, "ava": "Rutherford" }, "geometry": { "type": "Point", "coordinates": [ -122.41141475111435, 38.448017245391348 ] } },
{ "type": "Feature", "properties": { "name": "CASTELLO DI AMOROSA", "status": "PROD", "prod_orig": 250000, "prod_curr": 250000, "estab_date": "03\/01\/2004", "total_size": 149460, "ava": "Diamond Mountain District" }, "geometry": { "type": "Point", "coordinates": [ -122.542069106397975, 38.558458966245446 ] } },
{ "type": "Feature", "properties": { "name": "ALTAMURA WINERY", "status": "PROD", "prod_orig": 50000, "prod_curr": 50000, "estab_date": "10\/28\/1996", "total_size": 14915, "ava": "Napa Valley" }, "geometry": { "type": "Point", "coordinates": [ -122.180178252391684, 38.359502194399887 ] } },
{ "type": "Feature", "properties": { "name": "DIAMOND MOUNTAIN WINERY", "status": "PROD", "prod_orig": 10000, "prod_curr": 10000, "estab_date": "07\/09\/1996", "total_size": 2948, "ava": "Diamond Mountain District" }, "geometry": { "type": "Point", "coordinates": [ -122.577790846465291, 38.548547347561119 ] } },
{ "type": "Feature", "properties": { "name": "MEADOWOOD LANE WINERY", "status": "PROD", "prod_orig": 5000, "prod_curr": 48000, "estab_date": "09\/01\/2006", "total_size": 24520, "ava": "St Helena" }, "geometry": { "type": "Point", "coordinates": [ -122.455514366525321, 38.517175807922619 ] } },
{ "type": "Feature", "properties": { "name": "HAGAFEN CELLARS", "status": "PROD", "prod_orig": 50000, "prod_curr": 50000, "estab_date": "09\/01\/2003", "total_size": 6800, "ava": "Napa Valley" }, "geometry": { "type": "Point", "coordinates": [ -122.289466165197197, 38.364713631487895 ] } },
{ "type": "Feature", "properties": { "name": "CORISON WINERY", "status": "PROD", "prod_orig": 20000, "prod_curr": 20000, "estab_date": "09\/01\/2005", "total_size": 9480, "ava": "St Helena" }, "geometry": { "type": "Point", "coordinates": [ -122.447429029689147, 38.485106499035183 ] } },
{ "type": "Feature", "properties": { "name": "MAXVILLE LAKE WINERY", "status": "PROD", "prod_orig": 59000, "prod_curr": 59000, "estab_date": "09\/01\/2003", "total_size": 38657, "ava": "Chiles Valley District" }, "geometry": { "type": "Point", "coordinates": [ -122.374687887213483, 38.557801788148936 ] } },
{ "type": "Feature", "properties": { "name": "MARTIN ESTATE", "status": "PROD", "prod_orig": 20000, "prod_curr": 20000, "estab_date": "09\/01\/2003", "total_size": 5420, "ava": "Rutherford" }, "geometry": { "type": "Point", "coordinates": [ -122.397938417628467, 38.474522730740553 ] } },
{ "type": "Feature", "properties": { "name": "KULETO VILLA VINEYARDS", "status": "PROD", "prod_orig": 75000, "prod_curr": 75000, "estab_date": "09\/01\/2000", "total_size": 18299, "ava": "Napa Valley" }, "geometry": { "type": "Point", "coordinates": [ -122.324434104697957, 38.498362320390925 ] } },
{ "type": "Feature", "properties": { "name": "LAIRD FAMILY ESTATES", "status": "PROD", "prod_orig": 450000, "prod_curr": 900000, "estab_date": "09\/01\/2001", "total_size": 147356, "ava": "Oak Knoll District of Napa Valley" }, "geometry": { "type": "Point", "coordinates": [ -122.336604745870048, 38.353580909880264 ] } },
{ "type": "Feature", "properties": { "name": "HENDRY RANCH WINERY", "status": "PRODMD", "prod_orig": 59000, "prod_curr": 59000, "estab_date": "09\/01\/2005", "total_size": 23000, "ava": "Oak Knoll District of Napa Valley" }, "geometry": { "type": "Point", "coordinates": [ -122.34246181565004, 38.320280096898628 ] } },
{ "type": "Feature", "properties": { "name": "YOUNG WINERY", "status": "PROD", "prod_orig": 20000, "prod_curr": 20000, "estab_date": "07\/01\/1999", "total_size": 8384, "ava": "Napa Valley" }, "geometry": { "type": "Point", "coordinates": [ -122.474110246106818, 38.652330476592589 ] } },
{ "type": "Feature", "properties": { "name": "BARREL TEN QUARTER CIRCLE", "status": "PROD", "prod_orig": 44500000, "prod_curr": 44500000, "estab_date": "09\/01\/2003", "total_size": 96200, "ava": "Napa Valley" }, "geometry": { "type": "Point", "coordinates": [ -122.27162777631662, 38.220734007777104 ] } },
{ "type": "Feature", "properties": { "name": "ROBERT CRAIG WINERY", "status": "PROD", "prod_orig": 20000, "prod_curr": 25000, "estab_date": "09\/01\/2005", "total_size": 12600, "ava": "Howell Mountain" }, "geometry": { "type": "Point", "coordinates": [ -122.468152719027117, 38.598432400662226 ] } },
{ "type": "Feature", "properties": { "name": "SMITH FAMILY WINERY", "status": "PROD", "prod_orig": 7500, "prod_curr": 7500, "estab_date": "09\/01\/2001", "total_size": 1500, "ava": "Spring Mountain District" }, "geometry": { "type": "Point", "coordinates": [ -122.53781018456128, 38.503952157907491 ] } },
{ "type": "Feature", "properties": { "name": "ELAN VINEYARDS", "status": "PROD", "prod_orig": 15000, "prod_curr": 15000, "estab_date": "09\/01\/2000", "total_size": 3040, "ava": "Atlas Peak" }, "geometry": { "type": "Point", "coordinates": [ -122.2480398614248, 38.445674179126122 ] } },
{ "type": "Feature", "properties": { "name": "BURGESS NAPA CELLARS", "status": "PROD", "prod_orig": 75000, "prod_curr": 75000, "estab_date": "09\/01\/2001", "total_size": 14500, "ava": "Oak Knoll District of Napa Valley" }, "geometry": { "type": "Point", "coordinates": [ -122.349605335235225, 38.374141896663701 ] } },
{ "type": "Feature", "properties": { "name": "DEL DOTTO WINERY", "status": "PRODMD", "prod_orig": 10000, "prod_curr": 20000, "estab_date": "09\/01\/2004", "total_size": 9786, "ava": "Napa Valley" }, "geometry": { "type": "Point", "coordinates": [ -122.26314654794399, 38.339641766331553 ] } },
{ "type": "Feature", "properties": { "name": "NICKEL AND NICKEL WINERY", "status": "PROD", "prod_orig": 125000, "prod_curr": 125000, "estab_date": "09\/01\/2006", "total_size": 62565, "ava": "Oakville" }, "geometry": { "type": "Point", "coordinates": [ -122.407064006939095, 38.442790236490673 ] } },
{ "type": "Feature", "properties": { "name": "PALOMA VINEYARD", "status": "PROD", "prod_orig": 10000, "prod_curr": 10000, "estab_date": "09\/01\/2002", "total_size": 3613, "ava": "Spring Mountain District" }, "geometry": { "type": "Point", "coordinates": [ -122.549070814401432, 38.522475064198616 ] } },
{ "type": "Feature", "properties": { "name": "AMICI CELLARS", "status": "PROD", "prod_orig": 20000, "prod_curr": 20000, "estab_date": "09\/01\/2002", "total_size": 5000, "ava": "Calistoga" }, "geometry": { "type": "Point", "coordinates": [ -122.595381445110718, 38.61184466744546 ] } },
{ "type": "Feature", "properties": { "name": "NEAL WINERY", "status": "PROD", "prod_orig": 25000, "prod_curr": 35000, "estab_date": "09\/01\/2001", "total_size": 15282, "ava": "Howell Mountain" }, "geometry": { "type": "Point", "coordinates": [ -122.46313172831708, 38.574308810266011 ] } },
{ "type": "Feature", "properties": { "name": "O'SHAUGHNESSY WINERY", "status": "PROD", "prod_orig": 15000, "prod_curr": 15000, "estab_date": "09\/01\/2005", "total_size": 18491, "ava": "Howell Mountain" }, "geometry": { "type": "Point", "coordinates": [ -122.474802466519961, 38.587210009737028 ] } },
{ "type": "Feature", "properties": { "name": "COLGIN PARTNERS WINERY", "status": "PROD", "prod_orig": 20000, "prod_curr": 20000, "estab_date": "09\/01\/2004", "total_size": 18686, "ava": "Napa Valley" }, "geometry": { "type": "Point", "coordinates": [ -122.348542527597715, 38.471369939880987 ] } },
{ "type": "Feature", "properties": { "name": "ITALICS WINERY", "status": "PROD", "prod_orig": 50000, "prod_curr": 50000, "estab_date": "09\/01\/2005", "total_size": 32380, "ava": "Coombsville" }, "geometry": { "type": "Point", "coordinates": [ -122.24943380844158, 38.314522412343955 ] } },
{ "type": "Feature", "properties": { "name": "REYNOLDS WINERY", "status": "PRODMD", "prod_orig": 20000, "prod_curr": 20000, "estab_date": "09\/01\/2004", "total_size": 7800, "ava": "Napa Valley" }, "geometry": { "type": "Point", "coordinates": [ -122.285748971578997, 38.355737798898645 ] } },
{ "type": "Feature", "properties": { "name": "TEACHWORTH WINERY", "status": "PROD", "prod_orig": 5000, "prod_curr": 5000, "estab_date": "11\/14\/2001", "total_size": 800, "ava": "Diamond Mountain District" }, "geometry": { "type": "Point", "coordinates": [ -122.557657288718616, 38.558948320616729 ] } },
{ "type": "Feature", "properties": { "name": "KATHRYN HALL WINERY", "status": "PROD", "prod_orig": 18000, "prod_curr": 18000, "estab_date": "09\/01\/2006", "total_size": 17840, "ava": "Napa Valley" }, "geometry": { "type": "Point", "coordinates": [ -122.402330011622908, 38.496286897719919 ] } },
{ "type": "Feature", "properties": { "name": "PARADUXX VINEYARDS", "status": "PROD", "prod_orig": 156000, "prod_curr": 200000, "estab_date": "09\/01\/2006", "total_size": 32909, "ava": "Yountville" }, "geometry": { "type": "Point", "coordinates": [ -122.351454500796436, 38.437175902194944 ] } },
{ "type": "Feature", "properties": { "name": "EDGE HILL ESTATE WINERY", "status": "PROD", "prod_orig": 24000, "prod_curr": 24000, "estab_date": "09\/05\/2001", "total_size": 18450, "ava": "St Helena" }, "geometry": { "type": "Point", "coordinates": [ -122.47465789413117, 38.485204592223354 ] } },
{ "type": "Feature", "properties": { "name": "OLNEY FAMILY WINERY", "status": "PROD", "prod_orig": 25000, "prod_curr": 25000, "estab_date": "09\/01\/2004", "total_size": 34237, "ava": "Oak Knoll District of Napa Valley" }, "geometry": { "type": "Point", "coordinates": [ -122.343442510941244, 38.330636231302016 ] } },
{ "type": "Feature", "properties": { "name": "BROWN ESTATE VINEYARDS", "status": "PROD", "prod_orig": 50000, "prod_curr": 50000, "estab_date": "09\/01\/2003", "total_size": 8704, "ava": "Chiles Valley District" }, "geometry": { "type": "Point", "coordinates": [ -122.276796530243118, 38.504890744737814 ] } },
{ "type": "Feature", "properties": { "name": "JERICHO CANYON WINERY", "status": "PROD", "prod_orig": 20000, "prod_curr": 20000, "estab_date": "09\/01\/2007", "total_size": 11260, "ava": "Calistoga" }, "geometry": { "type": "Point", "coordinates": [ -122.593965219515653, 38.621360993323691 ] } },
{ "type": "Feature", "properties": { "name": "HERMAN WINERY", "status": "APVD", "prod_orig": 50000, "prod_curr": 24000, "estab_date": null, "total_size": 15550, "ava": "Oak Knoll District of Napa Valley" }, "geometry": { "type": "Point", "coordinates": [ -122.287908387960243, 38.33170661555674 ] } },
{ "type": "Feature", "properties": { "name": "ALLORA WINERY", "status": "PROD", "prod_orig": 12000, "prod_curr": 12000, "estab_date": "09\/01\/2008", "total_size": 2000, "ava": "St Helena" }, "geometry": { "type": "Point", "coordinates": [ -122.49368949493028, 38.535887113836985 ] } },
{ "type": "Feature", "properties": { "name": "SNOWDEN VINEYARDS", "status": "UNKNWN", "prod_orig": 30000, "prod_curr": 30000, "estab_date": null, "total_size": 26925, "ava": "Napa Valley" }, "geometry": { "type": "Point", "coordinates": [ -122.404760580833766, 38.49875879769273 ] } },
{ "type": "Feature", "properties": { "name": "MERUS WINES", "status": "PROD", "prod_orig": 20000, "prod_curr": 20000, "estab_date": "09\/01\/2005", "total_size": 11527, "ava": "St Helena" }, "geometry": { "type": "Point", "coordinates": [ -122.483763309986017, 38.552722116936124 ] } },
{ "type": "Feature", "properties": { "name": "NAPA VALLEY RESERVE", "status": "PROD", "prod_orig": 48000, "prod_curr": 48000, "estab_date": "09\/01\/2005", "total_size": 68130, "ava": "St Helena" }, "geometry": { "type": "Point", "coordinates": [ -122.462530988411402, 38.518409986285945 ] } },
{ "type": "Feature", "properties": { "name": "VINEYARD 7 AND 8", "status": "PROD", "prod_orig": 19200, "prod_curr": 19200, "estab_date": "10\/30\/2006", "total_size": 14313, "ava": "Spring Mountain District" }, "geometry": { "type": "Point", "coordinates": [ -122.552501088007318, 38.525981264041675 ] } },
{ "type": "Feature", "properties": { "name": "PALLADIAN ESTATE", "status": "PROD", "prod_orig": 5000, "prod_curr": 5000, "estab_date": "09\/01\/2003", "total_size": 2470, "ava": "St Helena" }, "geometry": { "type": "Point", "coordinates": [ -122.459035520439244, 38.519304129239984 ] } },
{ "type": "Feature", "properties": { "name": "REVANA WINERY", "status": "PROD", "prod_orig": 15000, "prod_curr": 15000, "estab_date": "09\/01\/2005", "total_size": 6624, "ava": "St Helena" }, "geometry": { "type": "Point", "coordinates": [ -122.492604043893365, 38.52110253194251 ] } },
{ "type": "Feature", "properties": { "name": "GARGIULO WINERY", "status": "PROD", "prod_orig": 20000, "prod_curr": 20000, "estab_date": "11\/06\/2006", "total_size": 4420, "ava": "Oakville" }, "geometry": { "type": "Point", "coordinates": [ -122.367219650238368, 38.454144115055691 ] } },
{ "type": "Feature", "properties": { "name": "DAVIS ESTATES", "status": "PRODMD", "prod_orig": 30000, "prod_curr": 30000, "estab_date": "09\/01\/2003", "total_size": 41890, "ava": "Calistoga" }, "geometry": { "type": "Point", "coordinates": [ -122.514207710312562, 38.570036302672072 ] } },
{ "type": "Feature", "properties": { "name": "DEL DOTTO FAMILY WINERY", "status": "PROD", "prod_orig": 48000, "prod_curr": 48000, "estab_date": "09\/01\/2008", "total_size": 19363, "ava": "Rutherford" }, "geometry": { "type": "Point", "coordinates": [ -122.442126583400338, 38.479579897532922 ] } },
{ "type": "Feature", "properties": { "name": "DANCING HARES VINEYARD", "status": "PROD", "prod_orig": 15000, "prod_curr": 15000, "estab_date": "09\/01\/2010", "total_size": 8971, "ava": "Napa Valley" }, "geometry": { "type": "Point", "coordinates": [ -122.491598137141892, 38.556981215824436 ] } },
{ "type": "Feature", "properties": { "name": "ELEVEN ELEVEN WINES", "status": "PROD", "prod_orig": 100000, "prod_curr": 100000, "estab_date": "09\/01\/2010", "total_size": 24200, "ava": "Oak Knoll District of Napa Valley" }, "geometry": { "type": "Point", "coordinates": [ -122.28797524487706, 38.326230593708338 ] } },
{ "type": "Feature", "properties": { "name": "HDV", "status": "PROD", "prod_orig": 20000, "prod_curr": 20000, "estab_date": "09\/01\/2004", "total_size": 5100, "ava": "Oak Knoll District of Napa Valley" }, "geometry": { "type": "Point", "coordinates": [ -122.283312294731971, 38.326170024518781 ] } },
{ "type": "Feature", "properties": { "name": "PALMAZ WINERY", "status": "PROD", "prod_orig": 35000, "prod_curr": 35000, "estab_date": "11\/12\/2002", "total_size": 55000, "ava": "Coombsville" }, "geometry": { "type": "Point", "coordinates": [ -122.224504642454136, 38.323612195784015 ] } },
{ "type": "Feature", "properties": { "name": "STAGLIN WINERY", "status": "PROD", "prod_orig": 24000, "prod_curr": 36000, "estab_date": "09\/01\/2001", "total_size": 56591, "ava": "Rutherford" }, "geometry": { "type": "Point", "coordinates": [ -122.428985587238628, 38.441836184512148 ] } },
{ "type": "Feature", "properties": { "name": "PEJU", "status": "PROD", "prod_orig": 20000, "prod_curr": 20000, "estab_date": "09\/01\/2004", "total_size": 12800, "ava": "Napa Valley" }, "geometry": { "type": "Point", "coordinates": [ -122.253689730558918, 38.226917548172835 ] } },
{ "type": "Feature", "properties": { "name": "BOESCHEN WINERY", "status": "PROD", "prod_orig": 20000, "prod_curr": 10000, "estab_date": "08\/15\/2006", "total_size": 6360, "ava": "St Helena" }, "geometry": { "type": "Point", "coordinates": [ -122.486736148370468, 38.538219006973385 ] } },
{ "type": "Feature", "properties": { "name": "HOWELL AT THE MOON WINERY", "status": "PROD", "prod_orig": 20000, "prod_curr": 20000, "estab_date": "06\/29\/2006", "total_size": 2495, "ava": "Howell Mountain" }, "geometry": { "type": "Point", "coordinates": [ -122.429705422559636, 38.556811244991124 ] } },
{ "type": "Feature", "properties": { "name": "ABREU HOWELL MTN VINEYARDS", "status": "APVD", "prod_orig": 20000, "prod_curr": 20000, "estab_date": null, "total_size": 18344, "ava": "Howell Mountain" }, "geometry": { "type": "Point", "coordinates": [ -122.431238907972485, 38.567328698275304 ] } },
{ "type": "Feature", "properties": { "name": "PORTER VINEYARDS", "status": "PROD", "prod_orig": 12000, "prod_curr": 12000, "estab_date": "09\/01\/2007", "total_size": 24000, "ava": "Coombsville" }, "geometry": { "type": "Point", "coordinates": [ -122.224523013481459, 38.282472260374838 ] } },
{ "type": "Feature", "properties": { "name": "BRYANT FAMILY WINERY", "status": "PROD", "prod_orig": 8500, "prod_curr": 8500, "estab_date": "11\/21\/2002", "total_size": 17293, "ava": "Napa Valley" }, "geometry": { "type": "Point", "coordinates": [ -122.339167370759753, 38.484673126168282 ] } },
{ "type": "Feature", "properties": { "name": "W H SMITH WINES", "status": "PROD", "prod_orig": 20000, "prod_curr": 20000, "estab_date": "09\/01\/2004", "total_size": 5528, "ava": "Howell Mountain" }, "geometry": { "type": "Point", "coordinates": [ -122.409327857258674, 38.545210556810339 ] } },
{ "type": "Feature", "properties": { "name": "CAVUS VINEYARDS", "status": "PROD", "prod_orig": 2500, "prod_curr": 2500, "estab_date": "09\/01\/2004", "total_size": 1650, "ava": "Stags Leap District" }, "geometry": { "type": "Point", "coordinates": [ -122.318479659480843, 38.408635281397032 ] } },
{ "type": "Feature", "properties": { "name": "CELANI FAMILY VINEYARDS", "status": "PROD", "prod_orig": 10000, "prod_curr": 10000, "estab_date": "09\/01\/2003", "total_size": 2150, "ava": "Oak Knoll District of Napa Valley" }, "geometry": { "type": "Point", "coordinates": [ -122.291055375521907, 38.335318355978224 ] } },
{ "type": "Feature", "properties": { "name": "PAHLMEYER WINERY", "status": "APVD", "prod_orig": 100000, "prod_curr": 100000, "estab_date": null, "total_size": 56057, "ava": "Atlas Peak" }, "geometry": { "type": "Point", "coordinates": [ -122.216150638734831, 38.390325747859144 ] } },
{ "type": "Feature", "properties": { "name": "ROY ESTATE VINEYARDS", "status": "APVD", "prod_orig": 12000, "prod_curr": 12000, "estab_date": null, "total_size": 17025, "ava": "Napa Valley" }, "geometry": { "type": "Point", "coordinates": [ -122.279548295010841, 38.366125272107467 ] } },
{ "type": "Feature", "properties": { "name": "BRANDLIN \/ CUVAISON CARNEROS", "status": "PRODMD", "prod_orig": 34000, "prod_curr": 155048, "estab_date": "11\/12\/2004", "total_size": 60000, "ava": "Los Carneros" }, "geometry": { "type": "Point", "coordinates": [ -122.347303448154975, 38.250593571793608 ] } },
{ "type": "Feature", "properties": { "name": "PHELAN WINERY", "status": "PROD", "prod_orig": 4800, "prod_curr": 4800, "estab_date": "09\/01\/2004", "total_size": 2880, "ava": "Napa Valley" }, "geometry": { "type": "Point", "coordinates": [ -122.225620442893629, 38.346185005906733 ] } },
{ "type": "Feature", "properties": { "name": "ARKENSTONE VINEYARDS", "status": "PROD", "prod_orig": 48000, "prod_curr": 60000, "estab_date": "09\/01\/2008", "total_size": 40528, "ava": "Howell Mountain" }, "geometry": { "type": "Point", "coordinates": [ -122.464584813523317, 38.564691125204448 ] } },
{ "type": "Feature", "properties": { "name": "MADRIGAL VINEYARDS", "status": "PROD", "prod_orig": 36000, "prod_curr": 36000, "estab_date": "09\/01\/2008", "total_size": 7617, "ava": "Calistoga" }, "geometry": { "type": "Point", "coordinates": [ -122.520915793330346, 38.553506446267406 ] } },
{ "type": "Feature", "properties": { "name": "PALISADES WINERY", "status": "APVD", "prod_orig": 120000, "prod_curr": 120000, "estab_date": null, "total_size": 38646, "ava": "Napa Valley" }, "geometry": { "type": "Point", "coordinates": [ -122.455383233984648, 38.647769470129958 ] } },
{ "type": "Feature", "properties": { "name": "TWO ROCKS WINERY", "status": "PROD", "prod_orig": 50000, "prod_curr": 50000, "estab_date": null, "total_size": 27632, "ava": "Napa Valley" }, "geometry": { "type": "Point", "coordinates": [ -122.363679968429551, 38.466685825145433 ] } },
{ "type": "Feature", "properties": { "name": "ARROYO CREEK VINEYARDS", "status": "APVD", "prod_orig": 125000, "prod_curr": 125000, "estab_date": null, "total_size": 30474, "ava": "Napa Valley" }, "geometry": { "type": "Point", "coordinates": [ -122.256955162574968, 38.259535630580103 ] } },
{ "type": "Feature", "properties": { "name": "BLANKIET WINERY", "status": "PROD", "prod_orig": 12000, "prod_curr": 12000, "estab_date": "10\/08\/2007", "total_size": 17681, "ava": "Yountville" }, "geometry": { "type": "Point", "coordinates": [ -122.383843614735852, 38.400656255829205 ] } },
{ "type": "Feature", "properties": { "name": "AZALEA SPRINGS WINERY", "status": "UNKNWN", "prod_orig": 12500, "prod_curr": 12500, "estab_date": null, "total_size": 11607, "ava": "Diamond Mountain District" }, "geometry": { "type": "Point", "coordinates": [ -122.550005701782851, 38.561529548728572 ] } },
{ "type": "Feature", "properties": { "name": "ANNAPURNA WINERY", "status": "UNKNWN", "prod_orig": 12000, "prod_curr": 12000, "estab_date": null, "total_size": 16950, "ava": "Stags Leap District" }, "geometry": { "type": "Point", "coordinates": [ -122.342704936532257, 38.417924586642755 ] } },
{ "type": "Feature", "properties": { "name": "LAIL VINEYARDS", "status": "APVD", "prod_orig": 12000, "prod_curr": 12000, "estab_date": null, "total_size": 17800, "ava": "Howell Mountain" }, "geometry": { "type": "Point", "coordinates": [ -122.46395599201999, 38.569187227916551 ] } },
{ "type": "Feature", "properties": { "name": "STEPHENS WINERY", "status": "UNKNWN", "prod_orig": 12000, "prod_curr": 12000, "estab_date": null, "total_size": 13516, "ava": "St Helena" }, "geometry": { "type": "Point", "coordinates": [ -122.440096762962355, 38.509105077615828 ] } },
{ "type": "Feature", "properties": { "name": "NEMEREVER WINERY", "status": "PROD", "prod_orig": 10000, "prod_curr": 10000, "estab_date": "07\/11\/2013", "total_size": 7448, "ava": "Oakville" }, "geometry": { "type": "Point", "coordinates": [ -122.375436396815815, 38.448637397354574 ] } },
{ "type": "Feature", "properties": { "name": "ADAMVS", "status": "PROD", "prod_orig": 20000, "prod_curr": 20000, "estab_date": "09\/01\/2006", "total_size": 20509, "ava": "Howell Mountain" }, "geometry": { "type": "Point", "coordinates": [ -122.453758548320891, 38.584226598855246 ] } },
{ "type": "Feature", "properties": { "name": "JAMES COLE WINERY", "status": "PROD", "prod_orig": 10000, "prod_curr": 10000, "estab_date": "09\/01\/2004", "total_size": 3333, "ava": "Napa Valley" }, "geometry": { "type": "Point", "coordinates": [ -122.299136211090783, 38.370778547231623 ] } },
{ "type": "Feature", "properties": { "name": "KEEVER WINERY", "status": "PROD", "prod_orig": 10000, "prod_curr": 10000, "estab_date": "09\/01\/2006", "total_size": 10274, "ava": "Yountville" }, "geometry": { "type": "Point", "coordinates": [ -122.364857400702391, 38.384409131508228 ] } },
{ "type": "Feature", "properties": { "name": "VIOLET VINEYARD", "status": "UNKNWN", "prod_orig": 20000, "prod_curr": 20000, "estab_date": null, "total_size": 5666, "ava": "Oak Knoll District of Napa Valley" }, "geometry": { "type": "Point", "coordinates": [ -122.318609154102674, 38.361708792557707 ] } },
{ "type": "Feature", "properties": { "name": "ROBERT BIALI VINEYARDS", "status": "PROD", "prod_orig": 40000, "prod_curr": 40000, "estab_date": "09\/01\/2006", "total_size": 19706, "ava": "Oak Knoll District of Napa Valley" }, "geometry": { "type": "Point", "coordinates": [ -122.301126639264439, 38.350450148055018 ] } },
{ "type": "Feature", "properties": { "name": "WILLIAM COLE WINERY", "status": "PROD", "prod_orig": 20000, "prod_curr": 20000, "estab_date": "09\/01\/2004", "total_size": 9040, "ava": "St Helena" }, "geometry": { "type": "Point", "coordinates": [ -122.490503471864159, 38.517980231802774 ] } },
{ "type": "Feature", "properties": { "name": "ALKO RANCH, LLC", "status": "PROD", "prod_orig": 100000, "prod_curr": 100000, "estab_date": "09\/01\/2007", "total_size": 32107, "ava": "Napa Valley" }, "geometry": { "type": "Point", "coordinates": [ -122.400301798610172, 38.602672510708764 ] } },
{ "type": "Feature", "properties": { "name": "JUDD'S HILL WINERY", "status": "PROD", "prod_orig": 30000, "prod_curr": 30000, "estab_date": "08\/11\/2005", "total_size": 7108, "ava": "Napa Valley" }, "geometry": { "type": "Point", "coordinates": [ -122.279772018948464, 38.339429574380468 ] } },
{ "type": "Feature", "properties": { "name": "COQUEREL FAMILY WINERY", "status": "APVD", "prod_orig": 75000, "prod_curr": 75000, "estab_date": null, "total_size": 12741, "ava": "Calistoga" }, "geometry": { "type": "Point", "coordinates": [ -122.608554351155533, 38.593601442079347 ] } },
{ "type": "Feature", "properties": { "name": "SHIFFLETT ESTATE WINERY", "status": "PROD", "prod_orig": 40000, "prod_curr": 40000, "estab_date": "09\/01\/2007", "total_size": 3000, "ava": "Oak Knoll District of Napa Valley" }, "geometry": { "type": "Point", "coordinates": [ -122.350116329878347, 38.360260580475632 ] } },
{ "type": "Feature", "properties": { "name": "ALTAMURA VINEYARDS", "status": "APVD", "prod_orig": 250000, "prod_curr": 250000, "estab_date": null, "total_size": 30232, "ava": "Napa Valley" }, "geometry": { "type": "Point", "coordinates": [ -122.178071814855656, 38.364574616219372 ] } },
{ "type": "Feature", "properties": { "name": "MASKED MAN WINERY", "status": "UNKNWN", "prod_orig": 8000, "prod_curr": 8000, "estab_date": null, "total_size": 3040, "ava": "St Helena" }, "geometry": { "type": "Point", "coordinates": [ -122.500971834970642, 38.557375097746736 ] } },
{ "type": "Feature", "properties": { "name": "LAGIER MEREDITH WINERY", "status": "APVD", "prod_orig": 5000, "prod_curr": 5000, "estab_date": null, "total_size": 5710, "ava": "Mount Veeder" }, "geometry": { "type": "Point", "coordinates": [ -122.387849219700513, 38.366061045998244 ] } },
{ "type": "Feature", "properties": { "name": "KENZO WINERY", "status": "PRODMD", "prod_orig": 85000, "prod_curr": 85000, "estab_date": "09\/01\/2010", "total_size": 54465, "ava": "Napa Valley" }, "geometry": { "type": "Point", "coordinates": [ -122.201806583693227, 38.339942413248721 ] } },
{ "type": "Feature", "properties": { "name": "MT. VEEDER SPRINGS WINERY", "status": "UNKNWN", "prod_orig": 10000, "prod_curr": 10000, "estab_date": "09\/01\/2008", "total_size": 2860, "ava": "Mount Veeder" }, "geometry": { "type": "Point", "coordinates": [ -122.368379047083991, 38.305305781993845 ] } },
{ "type": "Feature", "properties": { "name": "CLARK CLAUDON VINEYARD", "status": "UNKNWN", "prod_orig": 20000, "prod_curr": 20000, "estab_date": null, "total_size": 10377, "ava": "Napa Valley" }, "geometry": { "type": "Point", "coordinates": [ -122.444982297810313, 38.617971504642156 ] } },
{ "type": "Feature", "properties": { "name": "SEVEN STONES WINERY", "status": "PROD", "prod_orig": 1000, "prod_curr": 1900, "estab_date": "09\/01\/2005", "total_size": 2062, "ava": "Napa Valley" }, "geometry": { "type": "Point", "coordinates": [ -122.456264582309387, 38.522654093383579 ] } },
{ "type": "Feature", "properties": { "name": "BRAVANTE WINERY", "status": "PROD", "prod_orig": 20000, "prod_curr": 20000, "estab_date": "09\/01\/2008", "total_size": 10400, "ava": "Howell Mountain" }, "geometry": { "type": "Point", "coordinates": [ -122.463165730036081, 38.567347927908806 ] } },
{ "type": "Feature", "properties": { "name": "ROUND POND WINERY", "status": "PROD", "prod_orig": 20000, "prod_curr": 100000, "estab_date": "11\/09\/2005", "total_size": 33755, "ava": "Rutherford" }, "geometry": { "type": "Point", "coordinates": [ -122.402747015618829, 38.463987229734627 ] } },
{ "type": "Feature", "properties": { "name": "TWO SISTERS WINERY", "status": "UNKNWN", "prod_orig": 15000, "prod_curr": 15000, "estab_date": "09\/01\/2012", "total_size": 9040, "ava": "Calistoga" }, "geometry": { "type": "Point", "coordinates": [ -122.610943671836438, 38.596903781346718 ] } },
{ "type": "Feature", "properties": { "name": "VIN ROC WINERY", "status": "PROD", "prod_orig": 18000, "prod_curr": 18000, "estab_date": null, "total_size": 4000, "ava": "Atlas Peak" }, "geometry": { "type": "Point", "coordinates": [ -122.249926411459185, 38.427070694528986 ] } },
{ "type": "Feature", "properties": { "name": "CHATEAU 15 WINERY", "status": "APVD", "prod_orig": 20000, "prod_curr": 20000, "estab_date": null, "total_size": 14166, "ava": "Coombsville" }, "geometry": { "type": "Point", "coordinates": [ -122.24783868331788, 38.307260453182664 ] } },
{ "type": "Feature", "properties": { "name": "PILLAR ROCK WINERY", "status": "UNKNWN", "prod_orig": 16000, "prod_curr": 16000, "estab_date": null, "total_size": 13313, "ava": "Stags Leap District" }, "geometry": { "type": "Point", "coordinates": [ -122.330357597520148, 38.41493196412118 ] } },